,street,city,zip,state,beds,baths,sq__ft,sale_date,price,latitude,longitude,type_Condo,type_Multi-Family,type_Residential
0,3526 HIGH ST,SACRAMENTO,95838,CA,2,1,836,Wed May 21 00:00:00 EDT 2008,59222,38.631913,-121.434879,False,False,True
1,51 OMAHA CT,SACRAMENTO,95823,CA,3,1,1167,Wed May 21 00:00:00 EDT 2008,68212,38.478902,-121.431028,False,False,True
2,2796 BRANCH ST,SACRAMENTO,95815,CA,2,1,796,Wed May 21 00:00:00 EDT 2008,68880,38.618305,-121.443839,False,False,True
3,2805 JANETTE WAY,SACRAMENTO,95815,CA,2,1,852,Wed May 21 00:00:00 EDT 2008,69307,38.616835,-121.439146,False,False,True
4,6001 MCMAHON DR,SACRAMENTO,95824,CA,2,1,797,Wed May 21 00:00:00 EDT 2008,81900,38.51947,-121.435768,False,False,True
5,5828 PEPPERMILL CT,SACRAMENTO,95841,CA,3,1,1122,Wed May 21 00:00:00 EDT 2008,89921,38.662595,-121.327813,True,False,False
6,6048 OGDEN NASH WAY,SACRAMENTO,95842,CA,3,2,1104,Wed May 21 00:00:00 EDT 2008,90895,38.681659,-121.351705,False,False,True
7,2561 19TH AVE,SACRAMENTO,95820,CA,3,1,1177,Wed May 21 00:00:00 EDT 2008,91002,38.535092,-121.481367,False,False,True
8,11150 TRINITY RIVER DR Unit 114,RANCHO CORDOVA,95670,CA,2,2,941,Wed May 21 00:00:00 EDT 2008,94905,38.621188,-121.270555,True,False,False
9,7325 10TH ST,RIO LINDA,95673,CA,3,2,1146,Wed May 21 00:00:00 EDT 2008,98937,38.700909,-121.442979,False,False,True
10,645 MORRISON AVE,SACRAMENTO,95838,CA,3,2,909,Wed May 21 00:00:00 EDT 2008,100309,38.637663,-121.45152,False,False,True
11,4085 FAWN CIR,SACRAMENTO,95823,CA,3,2,1289,Wed May 21 00:00:00 EDT 2008,106250,38.470746,-121.458918,False,False,True
12,2930 LA ROSA RD,SACRAMENTO,95815,CA,1,1,871,Wed May 21 00:00:00 EDT 2008,106852,38.618698,-121.435833,False,False,True
13,2113 KIRK WAY,SACRAMENTO,95822,CA,3,1,1020,Wed May 21 00:00:00 EDT 2008,107502,38.482215,-121.492603,False,False,True
14,4533 LOCH HAVEN WAY,SACRAMENTO,95842,CA,2,2,1022,Wed May 21 00:00:00 EDT 2008,108750,38.672914,-121.35934,False,False,True
15,7340 HAMDEN PL,SACRAMENTO,95842,CA,2,2,1134,Wed May 21 00:00:00 EDT 2008,110700,38.700051,-121.351278,True,False,False
16,6715 6TH ST,RIO LINDA,95673,CA,2,1,844,Wed May 21 00:00:00 EDT 2008,113263,38.689591,-121.452239,False,False,True
17,6236 LONGFORD DR Unit 1,CITRUS HEIGHTS,95621,CA,2,1,795,Wed May 21 00:00:00 EDT 2008,116250,38.679776,-121.314089,True,False,False
18,250 PERALTA AVE,SACRAMENTO,95833,CA,2,1,588,Wed May 21 00:00:00 EDT 2008,120000,38.612099,-121.469095,False,False,True
19,113 LEEWILL AVE,RIO LINDA,95673,CA,3,2,1356,Wed May 21 00:00:00 EDT 2008,121630,38.689999,-121.46322,False,False,True
20,6118 STONEHAND AVE,CITRUS HEIGHTS,95621,CA,3,2,1118,Wed May 21 00:00:00 EDT 2008,122000,38.707851,-121.320707,False,False,True
21,4882 BANDALIN WAY,SACRAMENTO,95823,CA,4,2,1329,Wed May 21 00:00:00 EDT 2008,122682,38.468173,-121.444071,False,False,True
22,7511 OAKVALE CT,NORTH HIGHLANDS,95660,CA,4,2,1240,Wed May 21 00:00:00 EDT 2008,123000,38.702792,-121.38221,False,False,True
23,9 PASTURE CT,SACRAMENTO,95834,CA,3,2,1601,Wed May 21 00:00:00 EDT 2008,124100,38.628631,-121.488097,False,False,True
24,3729 BAINBRIDGE DR,NORTH HIGHLANDS,95660,CA,3,2,901,Wed May 21 00:00:00 EDT 2008,125000,38.701499,-121.37622,False,False,True
25,3828 BLACKFOOT WAY,ANTELOPE,95843,CA,3,2,1088,Wed May 21 00:00:00 EDT 2008,126640,38.70974,-121.37377,False,False,True
26,4108 NORTON WAY,SACRAMENTO,95820,CA,3,1,963,Wed May 21 00:00:00 EDT 2008,127281,38.537526,-121.478315,False,False,True
27,1469 JANRICK AVE,SACRAMENTO,95832,CA,3,2,1119,Wed May 21 00:00:00 EDT 2008,129000,38.476472,-121.501711,False,False,True
28,9861 CULP WAY,SACRAMENTO,95827,CA,4,2,1380,Wed May 21 00:00:00 EDT 2008,131200,38.558423,-121.327948,False,False,True
29,7825 CREEK VALLEY CIR,SACRAMENTO,95828,CA,3,2,1248,Wed May 21 00:00:00 EDT 2008,132000,38.472122,-121.404199,False,False,True
30,5201 LAGUNA OAKS DR Unit 140,ELK GROVE,95758,CA,2,2,1039,Wed May 21 00:00:00 EDT 2008,133000,38.423251,-121.444489,True,False,False
31,6768 MEDORA DR,NORTH HIGHLANDS,95660,CA,3,2,1152,Wed May 21 00:00:00 EDT 2008,134555,38.691161,-121.37192,False,False,True
32,3100 EXPLORER DR,SACRAMENTO,95827,CA,3,2,1380,Wed May 21 00:00:00 EDT 2008,136500,38.566663,-121.332644,False,False,True
33,7944 DOMINION WAY,ELVERTA,95626,CA,3,2,1116,Wed May 21 00:00:00 EDT 2008,138750,38.713182,-121.411227,False,False,True
34,5201 LAGUNA OAKS DR Unit 162,ELK GROVE,95758,CA,2,2,1039,Wed May 21 00:00:00 EDT 2008,141000,38.423251,-121.444489,True,False,False
35,3920 SHINING STAR DR,SACRAMENTO,95823,CA,3,2,1418,Wed May 21 00:00:00 EDT 2008,146250,38.48742,-121.462459,False,False,True
36,5031 CORVAIR ST,NORTH HIGHLANDS,95660,CA,3,2,1082,Wed May 21 00:00:00 EDT 2008,147308,38.658246,-121.375469,False,False,True
37,7661 NIXOS WAY,SACRAMENTO,95823,CA,4,2,1472,Wed May 21 00:00:00 EDT 2008,148750,38.479553,-121.463317,False,False,True
38,7044 CARTHY WAY,SACRAMENTO,95828,CA,4,2,1146,Wed May 21 00:00:00 EDT 2008,149593,38.49857,-121.420925,False,False,True
39,2442 LARKSPUR LN,SACRAMENTO,95825,CA,1,1,760,Wed May 21 00:00:00 EDT 2008,150000,38.58514,-121.403736,True,False,False
40,4800 WESTLAKE PKWY Unit 2109,SACRAMENTO,95835,CA,2,2,1304,Wed May 21 00:00:00 EDT 2008,152000,38.658812,-121.542345,True,False,False
41,2178 63RD AVE,SACRAMENTO,95822,CA,3,2,1207,Wed May 21 00:00:00 EDT 2008,154000,38.493955,-121.48966,False,False,True
42,8718 ELK WAY,ELK GROVE,95624,CA,3,2,1056,Wed May 21 00:00:00 EDT 2008,156896,38.41653,-121.379653,False,False,True
43,5708 RIDGEPOINT DR,ANTELOPE,95843,CA,2,2,1043,Wed May 21 00:00:00 EDT 2008,161250,38.72027,-121.331555,False,False,True
44,7315 KOALA CT,NORTH HIGHLANDS,95660,CA,4,2,1587,Wed May 21 00:00:00 EDT 2008,161500,38.699251,-121.371414,False,False,True
45,2622 ERIN DR,SACRAMENTO,95833,CA,4,1,1120,Wed May 21 00:00:00 EDT 2008,164000,38.613765,-121.488694,False,False,True
46,8421 SUNBLAZE WAY,SACRAMENTO,95823,CA,4,2,1580,Wed May 21 00:00:00 EDT 2008,165000,38.450543,-121.432538,False,False,True
47,7420 ALIX PKWY,SACRAMENTO,95823,CA,4,1,1955,Wed May 21 00:00:00 EDT 2008,166357,38.489405,-121.452811,False,False,True
48,3820 NATOMA WAY,SACRAMENTO,95838,CA,4,2,1656,Wed May 21 00:00:00 EDT 2008,166357,38.636748,-121.422159,False,False,True
49,4431 GREEN TREE DR,SACRAMENTO,95823,CA,3,2,1477,Wed May 21 00:00:00 EDT 2008,168000,38.499954,-121.454469,False,False,True
50,9417 SARA ST,ELK GROVE,95624,CA,3,2,1188,Wed May 21 00:00:00 EDT 2008,170000,38.415518,-121.370527,False,False,True
51,8299 HALBRITE WAY,SACRAMENTO,95828,CA,4,2,1590,Wed May 21 00:00:00 EDT 2008,173000,38.473814,-121.4,False,False,True
52,7223 KALLIE KAY LN,SACRAMENTO,95823,CA,3,2,1463,Wed May 21 00:00:00 EDT 2008,174250,38.477553,-121.419463,False,False,True
53,8156 STEINBECK WAY,SACRAMENTO,95828,CA,4,2,1714,Wed May 21 00:00:00 EDT 2008,174313,38.474853,-121.406326,False,False,True
54,7957 VALLEY GREEN DR,SACRAMENTO,95823,CA,3,2,1185,Wed May 21 00:00:00 EDT 2008,178480,38.465184,-121.434925,False,False,True
55,1122 WILD POPPY CT,GALT,95632,CA,3,2,1406,Wed May 21 00:00:00 EDT 2008,178760,38.287789,-121.294715,False,False,True
56,4520 BOMARK WAY,SACRAMENTO,95842,CA,4,2,1943,Wed May 21 00:00:00 EDT 2008,179580,38.665724,-121.358576,False,True,False
57,9012 KIEFER BLVD,SACRAMENTO,95826,CA,3,2,1172,Wed May 21 00:00:00 EDT 2008,181000,38.547011,-121.366217,False,False,True
58,5332 SANDSTONE ST,CARMICHAEL,95608,CA,3,1,1152,Wed May 21 00:00:00 EDT 2008,181872,38.662105,-121.313945,False,False,True
59,5993 SAWYER CIR,SACRAMENTO,95823,CA,4,3,1851,Wed May 21 00:00:00 EDT 2008,182587,38.4473,-121.435218,False,False,True
60,4844 CLYDEBANK WAY,ANTELOPE,95843,CA,3,2,1215,Wed May 21 00:00:00 EDT 2008,182716,38.714609,-121.347887,False,False,True
61,306 CAMELLIA WAY,GALT,95632,CA,3,2,1130,Wed May 21 00:00:00 EDT 2008,182750,38.260443,-121.297864,False,False,True
62,9021 MADISON AVE,ORANGEVALE,95662,CA,4,2,1603,Wed May 21 00:00:00 EDT 2008,183200,38.664186,-121.217511,False,False,True
63,404 6TH ST,GALT,95632,CA,3,1,1479,Wed May 21 00:00:00 EDT 2008,188741,38.251808,-121.302493,False,False,True
64,8317 SUNNY CREEK WAY,SACRAMENTO,95823,CA,3,2,1420,Wed May 21 00:00:00 EDT 2008,189000,38.459041,-121.424644,False,False,True
65,2617 BASS CT,SACRAMENTO,95826,CA,3,2,1280,Wed May 21 00:00:00 EDT 2008,192067,38.560767,-121.377471,False,False,True
66,7005 TIANT WAY,ELK GROVE,95758,CA,3,2,1586,Wed May 21 00:00:00 EDT 2008,194000,38.422811,-121.423285,False,False,True
67,7895 CABER WAY,ANTELOPE,95843,CA,3,2,1362,Wed May 21 00:00:00 EDT 2008,194818,38.711279,-121.393449,False,False,True
68,7624 BOGEY CT,SACRAMENTO,95828,CA,4,4,2162,Wed May 21 00:00:00 EDT 2008,195000,38.48009,-121.415102,False,True,False
69,6930 HAMPTON COVE WAY,SACRAMENTO,95823,CA,3,2,1266,Wed May 21 00:00:00 EDT 2008,198000,38.44004,-121.421012,False,False,True
70,8708 MESA BROOK WAY,ELK GROVE,95624,CA,4,2,1715,Wed May 21 00:00:00 EDT 2008,199500,38.44076,-121.385792,False,False,True
71,120 GRANT LN,FOLSOM,95630,CA,3,2,1820,Wed May 21 00:00:00 EDT 2008,200000,38.687742,-121.17104,False,False,True
72,5907 ELLERSLEE DR,CARMICHAEL,95608,CA,3,1,936,Wed May 21 00:00:00 EDT 2008,200000,38.664468,-121.32683,False,False,True
74,170 PENHOW CIR,SACRAMENTO,95834,CA,3,2,1511,Wed May 21 00:00:00 EDT 2008,208000,38.653439,-121.535169,False,False,True
75,8345 STAR THISTLE WAY,SACRAMENTO,95823,CA,4,2,1590,Wed May 21 00:00:00 EDT 2008,212864,38.454349,-121.439239,False,False,True
76,9080 FRESCA WAY,ELK GROVE,95758,CA,4,2,1596,Wed May 21 00:00:00 EDT 2008,221000,38.427818,-121.424026,False,False,True
77,391 NATALINO CIR,SACRAMENTO,95835,CA,2,2,1341,Wed May 21 00:00:00 EDT 2008,221000,38.67307,-121.506373,False,False,True
78,8373 BLACKMAN WAY,ELK GROVE,95624,CA,5,3,2136,Wed May 21 00:00:00 EDT 2008,223058,38.435436,-121.394536,False,False,True
79,9837 CORTE DORADO CT,ELK GROVE,95624,CA,4,2,1616,Wed May 21 00:00:00 EDT 2008,227887,38.400676,-121.38101,False,False,True
80,5037 J PKWY,SACRAMENTO,95823,CA,3,2,1478,Wed May 21 00:00:00 EDT 2008,231477,38.491399,-121.443547,False,False,True
81,10245 LOS PALOS DR,RANCHO CORDOVA,95670,CA,3,2,1287,Wed May 21 00:00:00 EDT 2008,234697,38.593699,-121.31089,False,False,True
82,6613 NAVION DR,CITRUS HEIGHTS,95621,CA,4,2,1277,Wed May 21 00:00:00 EDT 2008,235000,38.702855,-121.31308,False,False,True
83,2887 AZEVEDO DR,SACRAMENTO,95833,CA,4,2,1448,Wed May 21 00:00:00 EDT 2008,236000,38.618457,-121.509439,False,False,True
84,9186 KINBRACE CT,SACRAMENTO,95829,CA,4,3,2235,Wed May 21 00:00:00 EDT 2008,236685,38.463355,-121.358936,False,False,True
85,4243 MIDDLEBURY WAY,MATHER,95655,CA,3,2,2093,Wed May 21 00:00:00 EDT 2008,237800,38.547991,-121.280483,False,False,True
86,1028 FALLON PLACE CT,RIO LINDA,95673,CA,3,2,1193,Wed May 21 00:00:00 EDT 2008,240122,38.693818,-121.441153,False,False,True
87,4804 NORIKER DR,ELK GROVE,95757,CA,3,2,2163,Wed May 21 00:00:00 EDT 2008,242638,38.400974,-121.448424,False,False,True
88,7713 HARVEST WOODS DR,SACRAMENTO,95828,CA,3,2,1269,Wed May 21 00:00:00 EDT 2008,244000,38.478198,-121.412911,False,False,True
90,6913 RICHEVE WAY,SACRAMENTO,95828,CA,3,1,958,Wed May 21 00:00:00 EDT 2008,244960,38.502519,-121.420769,False,False,True
91,8636 TEGEA WAY,ELK GROVE,95624,CA,5,3,2508,Wed May 21 00:00:00 EDT 2008,245918,38.443832,-121.382087,False,False,True
92,5448 MAIDSTONE WAY,CITRUS HEIGHTS,95621,CA,3,2,1305,Wed May 21 00:00:00 EDT 2008,250000,38.665395,-121.293288,False,False,True
93,18 OLLIE CT,ELK GROVE,95758,CA,4,2,1591,Wed May 21 00:00:00 EDT 2008,250000,38.444909,-121.412345,False,False,True
94,4010 ALEX LN,CARMICHAEL,95608,CA,2,2,1326,Wed May 21 00:00:00 EDT 2008,250134,38.637028,-121.312963,True,False,False
95,4901 MILLNER WAY,ELK GROVE,95757,CA,3,2,1843,Wed May 21 00:00:00 EDT 2008,254200,38.38692,-121.447349,False,False,True
96,4818 BRITTNEY LEE CT,SACRAMENTO,95841,CA,4,2,1921,Wed May 21 00:00:00 EDT 2008,254200,38.653917,-121.34218,False,False,True
97,5529 LAGUNA PARK DR,ELK GROVE,95758,CA,5,3,2790,Wed May 21 00:00:00 EDT 2008,258000,38.42568,-121.438062,False,False,True
98,230 CANDELA CIR,SACRAMENTO,95835,CA,3,2,1541,Wed May 21 00:00:00 EDT 2008,260000,38.656251,-121.547572,False,False,True
99,4900 71ST ST,SACRAMENTO,95820,CA,3,1,1018,Wed May 21 00:00:00 EDT 2008,260014,38.53151,-121.421089,False,False,True
101,4236 NATOMAS CENTRAL DR,SACRAMENTO,95834,CA,3,2,1672,Wed May 21 00:00:00 EDT 2008,265000,38.648879,-121.544023,True,False,False
102,5615 LUPIN LN,POLLOCK PINES,95726,CA,3,2,1380,Wed May 21 00:00:00 EDT 2008,265000,38.708315,-120.603872,False,False,True
103,5625 JAMES WAY,SACRAMENTO,95822,CA,3,1,975,Wed May 21 00:00:00 EDT 2008,271742,38.523947,-121.484946,False,False,True
104,7842 LAHONTAN CT,SACRAMENTO,95829,CA,4,3,2372,Wed May 21 00:00:00 EDT 2008,273750,38.472976,-121.318633,False,False,True
105,6850 21ST ST,SACRAMENTO,95822,CA,3,2,1446,Wed May 21 00:00:00 EDT 2008,275086,38.502194,-121.490795,False,False,True
106,2900 BLAIR RD,POLLOCK PINES,95726,CA,2,2,1284,Wed May 21 00:00:00 EDT 2008,280908,38.75485,-120.60476,False,False,True
107,2064 EXPEDITION WAY,SACRAMENTO,95832,CA,4,3,3009,Wed May 21 00:00:00 EDT 2008,280987,38.474099,-121.490711,False,False,True
108,2912 NORCADE CIR,SACRAMENTO,95826,CA,8,4,3612,Wed May 21 00:00:00 EDT 2008,282400,38.559505,-121.364839,False,True,False
109,9507 SEA CLIFF WAY,ELK GROVE,95758,CA,4,2,2056,Wed May 21 00:00:00 EDT 2008,285000,38.410992,-121.479043,False,False,True
110,8882 AUTUMN GOLD CT,ELK GROVE,95624,CA,4,2,1993,Wed May 21 00:00:00 EDT 2008,287417,38.4439,-121.37255,False,False,True
111,5322 WHITE LOTUS WAY,ELK GROVE,95757,CA,3,2,1857,Wed May 21 00:00:00 EDT 2008,291000,38.391538,-121.442596,False,False,True
112,1838 CASTRO WAY,SACRAMENTO,95818,CA,2,1,1126,Wed May 21 00:00:00 EDT 2008,292024,38.556098,-121.490787,False,False,True
113,10158 CRAWFORD WAY,SACRAMENTO,95827,CA,4,4,2213,Wed May 21 00:00:00 EDT 2008,297000,38.5703,-121.315735,False,True,False
114,7731 MASTERS ST,ELK GROVE,95758,CA,5,3,2494,Wed May 21 00:00:00 EDT 2008,297000,38.442031,-121.410873,False,False,True
115,4925 PERCHERON DR,ELK GROVE,95757,CA,3,2,1843,Wed May 21 00:00:00 EDT 2008,298000,38.40154,-121.447649,False,False,True
116,2010 PROMONTORY POINT LN,GOLD RIVER,95670,CA,2,2,1520,Wed May 21 00:00:00 EDT 2008,299000,38.62869,-121.261669,False,False,True
117,4727 SAVOIE WAY,SACRAMENTO,95835,CA,5,3,2800,Wed May 21 00:00:00 EDT 2008,304037,38.658182,-121.549521,False,False,True
118,8664 MAGNOLIA HILL WAY,ELK GROVE,95624,CA,4,2,2309,Wed May 21 00:00:00 EDT 2008,311000,38.442352,-121.389675,False,False,True
119,9570 HARVEST ROSE WAY,SACRAMENTO,95827,CA,5,3,2367,Wed May 21 00:00:00 EDT 2008,315537,38.555993,-121.340352,False,False,True
120,4359 CREGAN CT,RANCHO CORDOVA,95742,CA,5,4,3516,Wed May 21 00:00:00 EDT 2008,320000,38.545128,-121.224922,False,False,True
122,8929 SUTTERS GOLD DR,SACRAMENTO,95826,CA,4,3,1914,Wed May 21 00:00:00 EDT 2008,328360,38.550848,-121.370224,False,False,True
123,8025 PEERLESS AVE,ORANGEVALE,95662,CA,2,1,1690,Wed May 21 00:00:00 EDT 2008,334150,38.71147,-121.216214,False,False,True
124,4620 WELERA WAY,ELK GROVE,95757,CA,3,3,2725,Wed May 21 00:00:00 EDT 2008,335750,38.398609,-121.450148,False,False,True
125,9723 TERRAPIN CT,ELK GROVE,95757,CA,4,3,2354,Wed May 21 00:00:00 EDT 2008,335750,38.403492,-121.430224,False,False,True
127,100 REBECCA WAY,FOLSOM,95630,CA,3,2,2185,Wed May 21 00:00:00 EDT 2008,344250,38.68479,-121.149199,False,False,True
128,9488 OAK VILLAGE WAY,ELK GROVE,95758,CA,4,2,1801,Wed May 21 00:00:00 EDT 2008,346210,38.41333,-121.404999,False,False,True
129,8495 DARTFORD DR,SACRAMENTO,95823,CA,3,3,1961,Wed May 21 00:00:00 EDT 2008,347029,38.448507,-121.421346,False,False,True
130,6708 PONTA DO SOL WAY,ELK GROVE,95757,CA,4,2,3134,Wed May 21 00:00:00 EDT 2008,347650,38.380635,-121.425538,False,False,True
131,4143 SEA MEADOW WAY,SACRAMENTO,95823,CA,4,3,1915,Wed May 21 00:00:00 EDT 2008,351300,38.46534,-121.457519,False,False,True
134,15300 MURIETA SOUTH PKWY,RANCHO MURIETA,95683,CA,4,3,2734,Wed May 21 00:00:00 EDT 2008,370500,38.4874,-121.075129,False,False,True
135,11215 SHARRMONT CT,WILTON,95693,CA,3,2,2110,Wed May 21 00:00:00 EDT 2008,372000,38.35062,-121.228349,False,False,True
136,7105 DANBERG WAY,ELK GROVE,95757,CA,5,3,3164,Wed May 21 00:00:00 EDT 2008,375000,38.4019,-121.420388,False,False,True
137,5579 JERRY LITELL WAY,SACRAMENTO,95835,CA,5,3,3599,Wed May 21 00:00:00 EDT 2008,381300,38.677126,-121.500519,False,False,True
138,1050 FOXHALL WAY,SACRAMENTO,95831,CA,4,2,2054,Wed May 21 00:00:00 EDT 2008,381942,38.509819,-121.519661,False,False,True
139,7837 ABBINGTON WAY,ANTELOPE,95843,CA,4,2,1830,Wed May 21 00:00:00 EDT 2008,387731,38.709873,-121.339472,False,False,True
140,1300 F ST,SACRAMENTO,95814,CA,3,3,1627,Wed May 21 00:00:00 EDT 2008,391000,38.58355,-121.487289,False,False,True
141,6801 RAWLEY WAY,ELK GROVE,95757,CA,4,3,3440,Wed May 21 00:00:00 EDT 2008,394470,38.408351,-121.423925,False,False,True
142,1693 SHELTER COVE DR,GREENWOOD,95635,CA,3,2,2846,Wed May 21 00:00:00 EDT 2008,395000,38.945357,-120.908822,False,False,True
143,9361 WADDELL LN,ELK GROVE,95624,CA,4,3,2359,Wed May 21 00:00:00 EDT 2008,400186,38.450829,-121.349928,False,False,True
144,10 SEA FOAM CT,SACRAMENTO,95831,CA,3,3,2052,Wed May 21 00:00:00 EDT 2008,415000,38.487885,-121.545947,False,False,True
145,6945 RIO TEJO WAY,ELK GROVE,95757,CA,5,3,3433,Wed May 21 00:00:00 EDT 2008,425000,38.385638,-121.422616,False,False,True
146,4186 TULIP PARK WAY,RANCHO CORDOVA,95742,CA,5,3,3615,Wed May 21 00:00:00 EDT 2008,430000,38.550617,-121.23526,False,False,True
148,207 ORANGE BLOSSOM CIR Unit C,FOLSOM,95630,CA,5,3,2687,Wed May 21 00:00:00 EDT 2008,460000,38.646273,-121.175322,False,False,True
149,6507 RIO DE ONAR WAY,ELK GROVE,95757,CA,4,3,2724,Wed May 21 00:00:00 EDT 2008,461000,38.38253,-121.428007,False,False,True
150,7004 RAWLEY WAY,ELK GROVE,95757,CA,4,3,3440,Wed May 21 00:00:00 EDT 2008,489332,38.406421,-121.422081,False,False,True
151,6503 RIO DE ONAR WAY,ELK GROVE,95757,CA,5,4,3508,Wed May 21 00:00:00 EDT 2008,510000,38.38253,-121.428038,False,False,True
152,2217 APPALOOSA CT,FOLSOM,95630,CA,4,2,2462,Wed May 21 00:00:00 EDT 2008,539000,38.655167,-121.090178,False,False,True
156,4004 CRESTA WAY,SACRAMENTO,95864,CA,3,3,2325,Wed May 21 00:00:00 EDT 2008,660000,38.591618,-121.370626,False,False,True
158,6272 LONGFORD DR Unit 1,CITRUS HEIGHTS,95621,CA,2,1,795,Tue May 20 00:00:00 EDT 2008,69000,38.680923,-121.313945,True,False,False
159,3432 Y ST,SACRAMENTO,95817,CA,4,2,1099,Tue May 20 00:00:00 EDT 2008,70000,38.554967,-121.468046,False,False,True
160,9512 EMERALD PARK DR Unit 3,ELK GROVE,95624,CA,2,1,840,Tue May 20 00:00:00 EDT 2008,71000,38.40573,-121.369832,True,False,False
161,3132 CLAY ST,SACRAMENTO,95815,CA,2,1,800,Tue May 20 00:00:00 EDT 2008,78000,38.624678,-121.439203,False,False,True
162,5221 38TH AVE,SACRAMENTO,95824,CA,2,1,746,Tue May 20 00:00:00 EDT 2008,78400,38.518044,-121.443555,False,False,True
163,6112 HERMOSA ST,SACRAMENTO,95822,CA,3,1,1067,Tue May 20 00:00:00 EDT 2008,80000,38.515125,-121.480416,False,False,True
164,483 ARCADE BLVD,SACRAMENTO,95815,CA,4,2,1316,Tue May 20 00:00:00 EDT 2008,89000,38.623571,-121.454884,False,False,True
165,671 SONOMA AVE,SACRAMENTO,95815,CA,3,1,1337,Tue May 20 00:00:00 EDT 2008,90000,38.622953,-121.450142,False,False,True
166,5980 79TH ST,SACRAMENTO,95824,CA,2,1,868,Tue May 20 00:00:00 EDT 2008,90000,38.518373,-121.411779,False,False,True
167,7607 ELDER CREEK RD,SACRAMENTO,95824,CA,3,1,924,Tue May 20 00:00:00 EDT 2008,92000,38.51055,-121.414768,False,False,True
168,5028 14TH AVE,SACRAMENTO,95820,CA,2,1,610,Tue May 20 00:00:00 EDT 2008,93675,38.53942,-121.446894,False,False,True
170,1069 ACACIA AVE,SACRAMENTO,95815,CA,2,1,1220,Tue May 20 00:00:00 EDT 2008,98000,38.621998,-121.442238,False,False,True
171,5201 LAGUNA OAKS DR Unit 199,ELK GROVE,95758,CA,1,1,722,Tue May 20 00:00:00 EDT 2008,98000,38.423251,-121.444489,True,False,False
172,3847 LAS PASAS WAY,SACRAMENTO,95864,CA,3,1,1643,Tue May 20 00:00:00 EDT 2008,99000,38.588672,-121.373916,False,False,True
173,5201 LAGUNA OAKS DR Unit 172,ELK GROVE,95758,CA,1,1,722,Tue May 20 00:00:00 EDT 2008,100000,38.423251,-121.444489,True,False,False
174,1121 CREEKSIDE WAY,GALT,95632,CA,3,1,1080,Tue May 20 00:00:00 EDT 2008,106716,38.241514,-121.312199,False,False,True
175,5307 CABRILLO WAY,SACRAMENTO,95820,CA,3,1,1039,Tue May 20 00:00:00 EDT 2008,111000,38.52712,-121.435348,False,False,True
176,3725 DON JULIO BLVD,NORTH HIGHLANDS,95660,CA,3,1,1051,Tue May 20 00:00:00 EDT 2008,111000,38.67895,-121.379406,False,False,True
177,4803 MCCLOUD DR,SACRAMENTO,95842,CA,2,2,967,Tue May 20 00:00:00 EDT 2008,114800,38.682279,-121.352817,False,False,True
178,10542 SILVERWOOD WAY,RANCHO CORDOVA,95670,CA,3,1,1098,Tue May 20 00:00:00 EDT 2008,120108,38.587156,-121.295778,False,False,True
179,6318 39TH AVE,SACRAMENTO,95824,CA,3,1,1050,Tue May 20 00:00:00 EDT 2008,123225,38.518942,-121.430158,False,False,True
180,211 MCDANIEL CIR,SACRAMENTO,95838,CA,3,2,1110,Tue May 20 00:00:00 EDT 2008,123750,38.636565,-121.460383,False,False,True
181,3800 LYNHURST WAY,NORTH HIGHLANDS,95660,CA,3,1,888,Tue May 20 00:00:00 EDT 2008,125000,38.650445,-121.374861,False,False,True
182,6139 HERMOSA ST,SACRAMENTO,95822,CA,3,2,1120,Tue May 20 00:00:00 EDT 2008,125000,38.514665,-121.480411,False,False,True
183,2505 RHINE WAY,ELVERTA,95626,CA,3,2,1080,Tue May 20 00:00:00 EDT 2008,126000,38.717976,-121.407684,False,False,True
184,3692 PAYNE WAY,NORTH HIGHLANDS,95660,CA,3,1,957,Tue May 20 00:00:00 EDT 2008,129000,38.66654,-121.378298,False,False,True
185,604 MORRISON AVE,SACRAMENTO,95838,CA,2,1,952,Tue May 20 00:00:00 EDT 2008,134000,38.637678,-121.452476,False,False,True
186,648 SANTA ANA AVE,SACRAMENTO,95838,CA,3,2,1211,Tue May 20 00:00:00 EDT 2008,135000,38.658478,-121.450409,False,False,True
187,14 ASHLEY OAKS CT,SACRAMENTO,95815,CA,3,2,1264,Tue May 20 00:00:00 EDT 2008,135500,38.61779,-121.436765,False,False,True
188,3174 NORTHVIEW DR,SACRAMENTO,95833,CA,3,1,1080,Tue May 20 00:00:00 EDT 2008,140000,38.623817,-121.477827,False,False,True
189,840 TRANQUIL LN,GALT,95632,CA,3,2,1266,Tue May 20 00:00:00 EDT 2008,140000,38.270617,-121.299205,False,False,True
190,5333 PRIMROSE DR Unit 19A,FAIR OAKS,95628,CA,2,2,994,Tue May 20 00:00:00 EDT 2008,142500,38.662785,-121.276272,True,False,False
191,1035 MILLET WAY,SACRAMENTO,95834,CA,3,2,1202,Tue May 20 00:00:00 EDT 2008,143500,38.631056,-121.48508,False,False,True
193,3328 22ND AVE,SACRAMENTO,95820,CA,2,1,722,Tue May 20 00:00:00 EDT 2008,145000,38.532727,-121.470783,False,False,True
194,8001 HARTWICK WAY,SACRAMENTO,95828,CA,4,2,1448,Tue May 20 00:00:00 EDT 2008,145000,38.488623,-121.410582,False,False,True
195,7812 HARTWICK WAY,SACRAMENTO,95828,CA,3,2,1188,Tue May 20 00:00:00 EDT 2008,145000,38.488611,-121.412808,False,False,True
196,4207 PAINTER WAY,NORTH HIGHLANDS,95660,CA,4,2,1183,Tue May 20 00:00:00 EDT 2008,146000,38.692915,-121.367497,False,False,True
197,7458 WINKLEY WAY,SACRAMENTO,95822,CA,3,1,1320,Tue May 20 00:00:00 EDT 2008,148500,38.487444,-121.491366,False,False,True
198,8354 SUNRISE WOODS WAY,SACRAMENTO,95828,CA,3,2,1117,Tue May 20 00:00:00 EDT 2008,149000,38.473288,-121.3963,False,False,True
199,8116 COTTONMILL CIR,SACRAMENTO,95828,CA,3,2,1364,Tue May 20 00:00:00 EDT 2008,150000,38.482876,-121.405912,False,False,True
200,4660 CEDARWOOD WAY,SACRAMENTO,95823,CA,4,2,1310,Tue May 20 00:00:00 EDT 2008,150000,38.484834,-121.449316,False,False,True
201,9254 HARROGATE WAY,ELK GROVE,95758,CA,2,2,1006,Tue May 20 00:00:00 EDT 2008,152000,38.420138,-121.412179,False,False,True
202,6716 TAREYTON WAY,CITRUS HEIGHTS,95621,CA,3,2,1104,Tue May 20 00:00:00 EDT 2008,156000,38.693724,-121.307169,False,False,True
203,2028 ROBERT WAY,SACRAMENTO,95825,CA,2,1,810,Tue May 20 00:00:00 EDT 2008,156000,38.609982,-121.419263,False,False,True
204,9346 AIZENBERG CIR,ELK GROVE,95624,CA,2,2,1123,Tue May 20 00:00:00 EDT 2008,156000,38.41875,-121.370019,False,False,True
205,4524 LOCH HAVEN WAY,SACRAMENTO,95842,CA,2,1,904,Tue May 20 00:00:00 EDT 2008,157788,38.67273,-121.359645,False,False,True
206,7140 BLUE SPRINGS WAY,CITRUS HEIGHTS,95621,CA,3,2,1156,Tue May 20 00:00:00 EDT 2008,161653,38.720653,-121.302241,False,False,True
207,4631 11TH AVE,SACRAMENTO,95820,CA,2,1,1321,Tue May 20 00:00:00 EDT 2008,161829,38.541965,-121.452132,False,False,True
208,3228 BAGGAN CT,ANTELOPE,95843,CA,3,2,1392,Tue May 20 00:00:00 EDT 2008,165000,38.715346,-121.388163,False,False,True
209,8515 DARTFORD DR,SACRAMENTO,95823,CA,3,2,1439,Tue May 20 00:00:00 EDT 2008,168000,38.448288,-121.420719,False,False,True
210,4500 TIPPWOOD WAY,SACRAMENTO,95842,CA,3,2,1159,Tue May 20 00:00:00 EDT 2008,169000,38.69951,-121.359989,False,False,True
211,2460 EL ROCCO WAY,RANCHO CORDOVA,95670,CA,3,2,1671,Tue May 20 00:00:00 EDT 2008,175000,38.591477,-121.31534,False,False,True
212,8244 SUNBIRD WAY,SACRAMENTO,95823,CA,3,2,1740,Tue May 20 00:00:00 EDT 2008,176250,38.457654,-121.431381,False,False,True
213,5841 VALLEY VALE WAY,SACRAMENTO,95823,CA,3,2,1265,Tue May 20 00:00:00 EDT 2008,179000,38.461283,-121.434322,False,False,True
214,7863 CRESTLEIGH CT,ANTELOPE,95843,CA,2,2,1007,Tue May 20 00:00:00 EDT 2008,180000,38.710889,-121.358876,False,False,True
215,7129 SPRINGMONT DR,ELK GROVE,95758,CA,3,2,1716,Tue May 20 00:00:00 EDT 2008,180400,38.417649,-121.420294,False,False,True
216,8284 RED FOX WAY,ELK GROVE,95758,CA,4,2,1685,Tue May 20 00:00:00 EDT 2008,182000,38.417182,-121.397231,False,False,True
217,2219 EL CANTO CIR,RANCHO CORDOVA,95670,CA,4,2,1829,Tue May 20 00:00:00 EDT 2008,184500,38.592383,-121.318669,False,False,True
218,8907 GEMWOOD WAY,ELK GROVE,95758,CA,3,2,1555,Tue May 20 00:00:00 EDT 2008,185000,38.435471,-121.441173,False,False,True
219,5925 MALEVILLE AVE,CARMICHAEL,95608,CA,4,2,1120,Tue May 20 00:00:00 EDT 2008,189000,38.666564,-121.325717,False,False,True
220,7031 CANEVALLEY CIR,CITRUS HEIGHTS,95621,CA,3,2,1137,Tue May 20 00:00:00 EDT 2008,194000,38.718693,-121.303619,False,False,True
221,3949 WILDROSE WAY,SACRAMENTO,95826,CA,3,1,1174,Tue May 20 00:00:00 EDT 2008,195000,38.543697,-121.366683,False,False,True
222,4437 MITCHUM CT,ANTELOPE,95843,CA,3,2,1393,Tue May 20 00:00:00 EDT 2008,200000,38.704407,-121.36113,False,False,True
225,8151 QUAIL RIDGE CT,SACRAMENTO,95828,CA,3,2,1289,Tue May 20 00:00:00 EDT 2008,205000,38.461296,-121.390858,False,False,True
226,4899 WIND CREEK DR,SACRAMENTO,95838,CA,4,2,1799,Tue May 20 00:00:00 EDT 2008,205000,38.655887,-121.446119,False,False,True
228,6049 HAMBURG WAY,SACRAMENTO,95823,CA,4,3,1953,Tue May 20 00:00:00 EDT 2008,205000,38.443253,-121.431992,False,False,True
229,4232 71ST ST,SACRAMENTO,95820,CA,2,1,723,Tue May 20 00:00:00 EDT 2008,207000,38.536741,-121.42115,False,False,True
231,1889 COLD SPRINGS RD,PLACERVILLE,95667,CA,2,1,948,Tue May 20 00:00:00 EDT 2008,211500,38.739774,-120.860243,False,False,True
232,5805 HIMALAYA WAY,CITRUS HEIGHTS,95621,CA,4,2,1578,Tue May 20 00:00:00 EDT 2008,215000,38.696489,-121.328555,False,False,True
233,7944 SYLVAN OAK WAY,CITRUS HEIGHTS,95610,CA,3,2,1317,Tue May 20 00:00:00 EDT 2008,215000,38.710388,-121.261096,False,False,True
235,6217 LEOLA WAY,SACRAMENTO,95824,CA,3,1,1360,Tue May 20 00:00:00 EDT 2008,222381,38.513066,-121.451909,False,False,True
237,3035 BRUNNET LN,SACRAMENTO,95833,CA,3,2,1522,Tue May 20 00:00:00 EDT 2008,225000,38.624762,-121.522775,False,False,True
238,3025 EL PRADO WAY,SACRAMENTO,95825,CA,4,2,1751,Tue May 20 00:00:00 EDT 2008,225000,38.606603,-121.394147,False,False,True
239,9387 GRANITE FALLS CT,ELK GROVE,95624,CA,3,2,1465,Tue May 20 00:00:00 EDT 2008,225000,38.419214,-121.348533,False,False,True
240,9257 CALDERA WAY,SACRAMENTO,95826,CA,4,2,1605,Tue May 20 00:00:00 EDT 2008,228000,38.55821,-121.355022,False,False,True
241,441 ARLINGDALE CIR,RIO LINDA,95673,CA,4,2,1475,Tue May 20 00:00:00 EDT 2008,229665,38.702893,-121.454949,False,False,True
242,2284 LOS ROBLES RD,MEADOW VISTA,95722,CA,3,1,1216,Tue May 20 00:00:00 EDT 2008,230000,39.008159,-121.03623,False,False,True
243,8164 CHENIN BLANC LN,FAIR OAKS,95628,CA,2,2,1315,Tue May 20 00:00:00 EDT 2008,230000,38.665644,-121.259969,False,False,True
244,4620 CHAMBERLIN CIR,ELK GROVE,95757,CA,3,2,1567,Tue May 20 00:00:00 EDT 2008,230000,38.390557,-121.449805,False,False,True
245,5340 BIRK WAY,SACRAMENTO,95835,CA,3,2,1776,Tue May 20 00:00:00 EDT 2008,234000,38.672495,-121.515251,False,False,True
246,51 ANJOU CIR,SACRAMENTO,95835,CA,3,2,2187,Tue May 20 00:00:00 EDT 2008,235000,38.661658,-121.540633,False,False,True
247,2125 22ND AVE,SACRAMENTO,95822,CA,3,1,1291,Tue May 20 00:00:00 EDT 2008,236250,38.534596,-121.493121,False,False,True
250,7344 BUTTERBALL WAY,SACRAMENTO,95842,CA,3,2,1503,Tue May 20 00:00:00 EDT 2008,245000,38.699489,-121.361828,False,False,True
251,8219 GWINHURST CIR,SACRAMENTO,95828,CA,4,3,2491,Tue May 20 00:00:00 EDT 2008,245000,38.459711,-121.384283,False,False,True
252,3240 S ST,SACRAMENTO,95816,CA,2,1,1269,Tue May 20 00:00:00 EDT 2008,245000,38.562296,-121.467489,False,False,True
254,5706 GREENACRES WAY,ORANGEVALE,95662,CA,3,2,1176,Tue May 20 00:00:00 EDT 2008,250000,38.669882,-121.213533,False,False,True
255,6900 LONICERA DR,ORANGEVALE,95662,CA,4,2,1456,Tue May 20 00:00:00 EDT 2008,250000,38.692199,-121.250975,False,False,True
256,419 DAWNRIDGE RD,ROSEVILLE,95678,CA,3,2,1498,Tue May 20 00:00:00 EDT 2008,250000,38.725283,-121.297953,False,False,True
257,5312 MARBURY WAY,ANTELOPE,95843,CA,3,2,1574,Tue May 20 00:00:00 EDT 2008,255000,38.710221,-121.341651,False,False,True
258,6344 BONHAM CIR,CITRUS HEIGHTS,95610,CA,5,4,2085,Tue May 20 00:00:00 EDT 2008,256054,38.682358,-121.272876,False,True,False
259,8207 YORKTON WAY,SACRAMENTO,95829,CA,3,2,2170,Tue May 20 00:00:00 EDT 2008,257729,38.45967,-121.360461,False,False,True
260,7922 MANSELL WAY,ELK GROVE,95758,CA,4,2,1595,Tue May 20 00:00:00 EDT 2008,260000,38.409634,-121.410787,False,False,True
261,5712 MELBURY CIR,ANTELOPE,95843,CA,3,2,1567,Tue May 20 00:00:00 EDT 2008,261000,38.705849,-121.334701,False,False,True
263,1570 GLIDDEN AVE,SACRAMENTO,95822,CA,4,2,1253,Tue May 20 00:00:00 EDT 2008,264469,38.482704,-121.500433,False,False,True
264,8108 FILIFERA WAY,ANTELOPE,95843,CA,4,3,1768,Tue May 20 00:00:00 EDT 2008,265000,38.717042,-121.35468,False,False,True
266,5342 CALABRIA WAY,SACRAMENTO,95835,CA,4,3,2030,Tue May 20 00:00:00 EDT 2008,270000,38.671807,-121.498274,False,False,True
267,47 NAPONEE CT,SACRAMENTO,95835,CA,3,2,1531,Tue May 20 00:00:00 EDT 2008,270000,38.665704,-121.529096,False,False,True
269,8864 REMBRANT CT,ELK GROVE,95624,CA,4,3,1653,Tue May 20 00:00:00 EDT 2008,275000,38.435288,-121.375703,False,False,True
270,9455 SEA CLIFF WAY,ELK GROVE,95758,CA,4,2,2056,Tue May 20 00:00:00 EDT 2008,275000,38.411522,-121.481406,False,False,True
271,9720 LITTLE HARBOR WAY,ELK GROVE,95624,CA,4,3,2494,Tue May 20 00:00:00 EDT 2008,280000,38.404934,-121.352405,False,False,True
272,8806 PHOENIX AVE,FAIR OAKS,95628,CA,3,2,1450,Tue May 20 00:00:00 EDT 2008,286013,38.660322,-121.230101,False,False,True
273,3578 LOGGERHEAD WAY,SACRAMENTO,95834,CA,4,2,2169,Tue May 20 00:00:00 EDT 2008,292000,38.633028,-121.526755,False,False,True
274,1416 LOCKHART WAY,ROSEVILLE,95747,CA,3,2,1440,Tue May 20 00:00:00 EDT 2008,292000,38.752399,-121.330328,False,False,True
275,5413 BUENA VENTURA WAY,FAIR OAKS,95628,CA,3,2,1527,Tue May 20 00:00:00 EDT 2008,293993,38.664552,-121.255937,False,False,True
276,37 WHITE BIRCH CT,ROSEVILLE,95678,CA,3,2,1401,Tue May 20 00:00:00 EDT 2008,294000,38.776327,-121.284514,False,False,True
277,405 MARLIN SPIKE WAY,SACRAMENTO,95838,CA,3,2,1411,Tue May 20 00:00:00 EDT 2008,296769,38.65783,-121.456842,False,False,True
280,7320 6TH ST,RIO LINDA,95673,CA,3,1,1284,Tue May 20 00:00:00 EDT 2008,300000,38.700553,-121.452223,False,False,True
281,993 MANTON CT,GALT,95632,CA,4,3,2307,Tue May 20 00:00:00 EDT 2008,300000,38.272942,-121.289148,False,False,True
282,4487 PANORAMA DR,PLACERVILLE,95667,CA,3,2,1329,Tue May 20 00:00:00 EDT 2008,300000,38.694559,-120.848157,False,False,True
283,5651 OVERLEAF WAY,SACRAMENTO,95835,CA,4,2,1910,Tue May 20 00:00:00 EDT 2008,300500,38.677454,-121.494791,False,False,True
284,2015 PROMONTORY POINT LN,GOLD RIVER,95670,CA,3,2,1981,Tue May 20 00:00:00 EDT 2008,305000,38.628732,-121.261149,False,False,True
288,8 RIVER RAFT CT,SACRAMENTO,95823,CA,4,2,2205,Tue May 20 00:00:00 EDT 2008,319789,38.447353,-121.434969,False,False,True
289,2251 LAMPLIGHT LN,LINCOLN,95648,CA,2,2,1449,Tue May 20 00:00:00 EDT 2008,330000,38.849924,-121.275729,False,False,True
290,106 FARHAM DR,FOLSOM,95630,CA,3,2,1258,Tue May 20 00:00:00 EDT 2008,330000,38.667834,-121.168578,False,False,True
291,5405 NECTAR CIR,ELK GROVE,95757,CA,3,2,2575,Tue May 20 00:00:00 EDT 2008,331000,38.387014,-121.440967,False,False,True
292,5411 10TH AVE,SACRAMENTO,95820,CA,2,1,539,Tue May 20 00:00:00 EDT 2008,334000,38.542727,-121.442449,False,False,True
293,3512 RAINSONG CIR,RANCHO CORDOVA,95670,CA,4,3,2208,Tue May 20 00:00:00 EDT 2008,336000,38.573488,-121.282809,False,False,True
294,1106 55TH ST,SACRAMENTO,95819,CA,3,1,1108,Tue May 20 00:00:00 EDT 2008,339000,38.563805,-121.436395,False,False,True
295,411 ILLSLEY WAY,FOLSOM,95630,CA,4,2,1595,Tue May 20 00:00:00 EDT 2008,339000,38.652002,-121.129504,False,False,True
296,796 BUTTERCUP CIR,GALT,95632,CA,4,2,2159,Tue May 20 00:00:00 EDT 2008,345000,38.279581,-121.300828,False,False,True
297,1230 SANDRA CIR,PLACERVILLE,95667,CA,4,3,2295,Tue May 20 00:00:00 EDT 2008,350000,38.738141,-120.784145,False,False,True
298,318 ANACAPA DR,ROSEVILLE,95678,CA,3,2,1838,Tue May 20 00:00:00 EDT 2008,356000,38.782094,-121.297133,False,False,True
299,3975 SHINING STAR DR,SACRAMENTO,95823,CA,4,2,1900,Tue May 20 00:00:00 EDT 2008,361745,38.487409,-121.461413,False,False,True
300,1620 BASLER ST,SACRAMENTO,95811,CA,4,2,1718,Tue May 20 00:00:00 EDT 2008,361948,38.591822,-121.478644,False,False,True
301,9688 NATURE TRAIL WAY,ELK GROVE,95757,CA,5,3,3389,Tue May 20 00:00:00 EDT 2008,370000,38.405224,-121.479275,False,False,True
303,9629 CEDAR OAK WAY,ELK GROVE,95757,CA,5,4,3260,Tue May 20 00:00:00 EDT 2008,385000,38.405527,-121.431746,False,False,True
304,3429 FERNBROOK CT,CAMERON PARK,95682,CA,3,2,2016,Tue May 20 00:00:00 EDT 2008,399000,38.664225,-121.007173,False,False,True
305,2121 HANNAH WAY,ROCKLIN,95765,CA,4,2,2607,Tue May 20 00:00:00 EDT 2008,402000,38.805749,-121.280931,False,False,True
306,10104 ANNIE ST,ELK GROVE,95757,CA,4,3,2724,Tue May 20 00:00:00 EDT 2008,406026,38.390465,-121.443479,False,False,True
307,1092 MAUGHAM CT,GALT,95632,CA,5,4,3746,Tue May 20 00:00:00 EDT 2008,420000,38.271646,-121.286848,False,False,True
309,6306 CONEJO,RANCHO MURIETA,95683,CA,4,2,3192,Tue May 20 00:00:00 EDT 2008,425000,38.512602,-121.087233,False,False,True
313,427 21ST ST,SACRAMENTO,95811,CA,2,1,1247,Tue May 20 00:00:00 EDT 2008,445000,38.582604,-121.47576,False,False,True
314,1044 GALSTON DR,FOLSOM,95630,CA,4,2,2581,Tue May 20 00:00:00 EDT 2008,450000,38.676306,-121.09954,False,False,True
315,4440 SYCAMORE AVE,SACRAMENTO,95841,CA,3,1,2068,Tue May 20 00:00:00 EDT 2008,460000,38.646374,-121.353658,False,False,True
317,9760 LAZULITE CT,ELK GROVE,95624,CA,4,3,3992,Tue May 20 00:00:00 EDT 2008,460000,38.403609,-121.335541,False,False,True
318,241 LANFRANCO CIR,SACRAMENTO,95835,CA,4,4,3397,Tue May 20 00:00:00 EDT 2008,465000,38.665696,-121.549437,False,False,True
319,5559 NORTHBOROUGH DR,SACRAMENTO,95835,CA,5,3,3881,Tue May 20 00:00:00 EDT 2008,471750,38.677225,-121.519687,False,False,True
321,2109 HAMLET PL,CARMICHAEL,95608,CA,2,2,1598,Tue May 20 00:00:00 EDT 2008,484000,38.602754,-121.329326,False,False,True
322,9970 STATE HIGHWAY 193,PLACERVILLE,95667,CA,4,3,1929,Tue May 20 00:00:00 EDT 2008,485000,38.787877,-120.816676,False,False,True
323,2901 PINTAIL WAY,ELK GROVE,95757,CA,4,3,3070,Tue May 20 00:00:00 EDT 2008,495000,38.398488,-121.473424,False,False,True
328,7756 TIGERWOODS DR,SACRAMENTO,95829,CA,5,3,3984,Tue May 20 00:00:00 EDT 2008,572500,38.47643,-121.309243,False,False,True
329,5709 RIVER OAK WAY,CARMICHAEL,95608,CA,4,2,2222,Tue May 20 00:00:00 EDT 2008,582000,38.602461,-121.330979,False,False,True
330,2981 WRINGER DR,ROSEVILLE,95661,CA,4,3,3838,Tue May 20 00:00:00 EDT 2008,613401,38.735373,-121.227072,False,False,True
332,4128 HILL ST,FAIR OAKS,95628,CA,5,5,2846,Tue May 20 00:00:00 EDT 2008,680000,38.64167,-121.262099,False,False,True
333,1409 47TH ST,SACRAMENTO,95819,CA,5,2,2484,Tue May 20 00:00:00 EDT 2008,699000,38.563244,-121.446876,False,False,True
334,3935 EL MONTE DR,LOOMIS,95650,CA,4,4,1624,Tue May 20 00:00:00 EDT 2008,839000,38.813337,-121.133348,False,False,True
335,5840 WALERGA RD,SACRAMENTO,95842,CA,2,1,840,Mon May 19 00:00:00 EDT 2008,40000,38.673678,-121.357471,True,False,False
336,923 FULTON AVE,SACRAMENTO,95825,CA,1,1,484,Mon May 19 00:00:00 EDT 2008,48000,38.582279,-121.401482,True,False,False
337,261 REDONDO AVE,SACRAMENTO,95815,CA,3,1,970,Mon May 19 00:00:00 EDT 2008,61500,38.620685,-121.460539,False,False,True
338,4030 BROADWAY,SACRAMENTO,95817,CA,2,1,623,Mon May 19 00:00:00 EDT 2008,62050,38.546798,-121.460038,False,False,True
339,3660 22ND AVE,SACRAMENTO,95820,CA,2,1,932,Mon May 19 00:00:00 EDT 2008,65000,38.532718,-121.46747,False,False,True
340,3924 HIGH ST,SACRAMENTO,95838,CA,2,1,796,Mon May 19 00:00:00 EDT 2008,65000,38.638797,-121.435049,False,False,True
341,4734 14TH AVE,SACRAMENTO,95820,CA,2,1,834,Mon May 19 00:00:00 EDT 2008,68000,38.539447,-121.450858,False,False,True
342,4734 14TH AVE,SACRAMENTO,95820,CA,2,1,834,Mon May 19 00:00:00 EDT 2008,68000,38.539447,-121.450858,False,False,True
343,5050 RHODE ISLAND DR Unit 4,SACRAMENTO,95841,CA,2,1,924,Mon May 19 00:00:00 EDT 2008,77000,38.658739,-121.333561,True,False,False
344,4513 GREENHOLME DR,SACRAMENTO,95842,CA,2,1,795,Mon May 19 00:00:00 EDT 2008,82732,38.669104,-121.359008,True,False,False
345,3845 ELM ST,SACRAMENTO,95838,CA,3,1,1250,Mon May 19 00:00:00 EDT 2008,84000,38.637337,-121.432835,False,False,True
346,3908 17TH AVE,SACRAMENTO,95820,CA,2,1,984,Mon May 19 00:00:00 EDT 2008,84675,38.53728,-121.463531,False,False,True
347,7109 CHANDLER DR,SACRAMENTO,95828,CA,3,1,1013,Mon May 19 00:00:00 EDT 2008,85000,38.497237,-121.424187,False,False,True
348,7541 SKELTON WAY,SACRAMENTO,95822,CA,3,1,1012,Mon May 19 00:00:00 EDT 2008,90000,38.484274,-121.488851,False,False,True
349,9058 MONTOYA ST,SACRAMENTO,95826,CA,2,1,795,Mon May 19 00:00:00 EDT 2008,90000,38.559144,-121.368387,True,False,False
350,1016 CONGRESS AVE,SACRAMENTO,95838,CA,2,2,918,Mon May 19 00:00:00 EDT 2008,91000,38.630151,-121.442789,False,False,True
351,540 MORRISON AVE,SACRAMENTO,95838,CA,3,1,1082,Mon May 19 00:00:00 EDT 2008,95000,38.637704,-121.453946,False,False,True
352,5303 JERRETT WAY,SACRAMENTO,95842,CA,2,1,964,Mon May 19 00:00:00 EDT 2008,97500,38.663282,-121.359631,False,False,True
353,2820 DEL PASO BLVD,SACRAMENTO,95815,CA,4,2,1404,Mon May 19 00:00:00 EDT 2008,100000,38.617718,-121.440089,False,True,False
354,3715 TALLYHO DR Unit 78HIGH,SACRAMENTO,95826,CA,1,1,625,Mon May 19 00:00:00 EDT 2008,100000,38.544627,-121.35796,True,False,False
355,6013 ROWAN WAY,CITRUS HEIGHTS,95621,CA,2,1,888,Mon May 19 00:00:00 EDT 2008,101000,38.675893,-121.2963,False,False,True
356,2987 PONDEROSA LN,SACRAMENTO,95815,CA,4,2,1120,Mon May 19 00:00:00 EDT 2008,102750,38.622243,-121.457863,False,False,True
357,3732 LANKERSHIM WAY,NORTH HIGHLANDS,95660,CA,3,1,1331,Mon May 19 00:00:00 EDT 2008,112500,38.68972,-121.378399,False,False,True
358,2216 DUNLAP DR,SACRAMENTO,95821,CA,3,1,1014,Mon May 19 00:00:00 EDT 2008,113000,38.623738,-121.41305,False,False,True
359,3503 21ST AVE,SACRAMENTO,95820,CA,4,2,1448,Mon May 19 00:00:00 EDT 2008,114000,38.53361,-121.469308,False,False,True
360,523 EXCHANGE ST,SACRAMENTO,95838,CA,3,1,966,Mon May 19 00:00:00 EDT 2008,114000,38.659414,-121.45408,False,False,True
361,8101 PORT ROYALE WAY,SACRAMENTO,95823,CA,2,1,779,Mon May 19 00:00:00 EDT 2008,114750,38.463929,-121.438667,False,False,True
362,8020 WALERGA RD,ANTELOPE,95843,CA,2,2,836,Mon May 19 00:00:00 EDT 2008,115000,38.71607,-121.364468,True,False,False
363,167 VALLEY OAK DR,ROSEVILLE,95678,CA,2,2,1100,Mon May 19 00:00:00 EDT 2008,115000,38.732429,-121.288069,True,False,False
364,7876 BURLINGTON WAY,SACRAMENTO,95832,CA,3,1,1174,Mon May 19 00:00:00 EDT 2008,116100,38.470093,-121.468347,False,False,True
365,3726 JONKO AVE,NORTH HIGHLANDS,95660,CA,3,2,1207,Mon May 19 00:00:00 EDT 2008,119250,38.656131,-121.377265,False,False,True
366,7342 GIGI PL,SACRAMENTO,95828,CA,4,4,1995,Mon May 19 00:00:00 EDT 2008,120000,38.490704,-121.410176,False,True,False
367,2610 PHYLLIS AVE,SACRAMENTO,95820,CA,2,1,804,Mon May 19 00:00:00 EDT 2008,120000,38.53105,-121.479574,False,False,True
368,4200 COMMERCE WAY Unit 711,SACRAMENTO,95834,CA,2,2,958,Mon May 19 00:00:00 EDT 2008,120000,38.647523,-121.523217,True,False,False
369,4621 COUNTRY SCENE WAY,SACRAMENTO,95823,CA,3,2,1366,Mon May 19 00:00:00 EDT 2008,120108,38.470187,-121.448149,False,False,True
370,5380 VILLAGE WOOD DR,SACRAMENTO,95823,CA,2,2,901,Mon May 19 00:00:00 EDT 2008,121500,38.454949,-121.440578,False,False,True
371,2621 EVERGREEN ST,SACRAMENTO,95815,CA,3,1,696,Mon May 19 00:00:00 EDT 2008,121725,38.613103,-121.444085,False,False,True
372,201 CARLO CT,GALT,95632,CA,3,2,1080,Mon May 19 00:00:00 EDT 2008,122000,38.24227,-121.31032,False,False,True
373,6743 21ST ST,SACRAMENTO,95822,CA,3,2,1104,Mon May 19 00:00:00 EDT 2008,123000,38.50372,-121.490657,False,False,True
374,3128 VIA GRANDE,SACRAMENTO,95825,CA,2,1,972,Mon May 19 00:00:00 EDT 2008,125000,38.598321,-121.39161,False,False,True
375,2847 BELGRADE WAY,SACRAMENTO,95833,CA,4,2,1390,Mon May 19 00:00:00 EDT 2008,125573,38.617173,-121.482541,False,False,True
376,7741 MILLDALE CIR,ELVERTA,95626,CA,4,2,1354,Mon May 19 00:00:00 EDT 2008,126714,38.705834,-121.43919,False,False,True
377,9013 CASALS ST,SACRAMENTO,95826,CA,2,1,795,Mon May 19 00:00:00 EDT 2008,126960,38.557045,-121.37167,True,False,False
378,227 MAHAN CT Unit 1,ROSEVILLE,95678,CA,2,1,780,Mon May 19 00:00:00 EDT 2008,127000,38.749723,-121.27008,True,False,False
379,7349 FLETCHER FARM DR,SACRAMENTO,95828,CA,4,2,1587,Mon May 19 00:00:00 EDT 2008,127500,38.49069,-121.382619,False,False,True
380,7226 LARCHMONT DR,NORTH HIGHLANDS,95660,CA,3,2,1209,Mon May 19 00:00:00 EDT 2008,130000,38.699269,-121.376334,False,False,True
381,4114 35TH AVE,SACRAMENTO,95824,CA,2,1,1139,Mon May 19 00:00:00 EDT 2008,133105,38.520941,-121.459355,False,False,True
382,617 M ST,RIO LINDA,95673,CA,2,2,1690,Mon May 19 00:00:00 EDT 2008,136500,38.691104,-121.451832,False,False,True
383,7032 FAIR OAKS BLVD,CARMICHAEL,95608,CA,3,2,1245,Mon May 19 00:00:00 EDT 2008,139500,38.628563,-121.328297,True,False,False
384,2421 SANTINA WAY,ELVERTA,95626,CA,3,2,1416,Mon May 19 00:00:00 EDT 2008,140000,38.71865,-121.407763,False,False,True
385,2368 CRAIG AVE,SACRAMENTO,95832,CA,3,2,1300,Mon May 19 00:00:00 EDT 2008,140800,38.47807,-121.48114,False,False,True
386,2123 AMANDA WAY,SACRAMENTO,95822,CA,3,2,1120,Mon May 19 00:00:00 EDT 2008,145000,38.484896,-121.486948,False,False,True
387,7620 DARLA WAY,SACRAMENTO,95828,CA,4,2,1590,Mon May 19 00:00:00 EDT 2008,147000,38.478502,-121.403517,False,False,True
388,8344 FIELDPOPPY CIR,SACRAMENTO,95828,CA,3,2,1407,Mon May 19 00:00:00 EDT 2008,149600,38.479083,-121.400702,False,False,True
389,3624 20TH AVE,SACRAMENTO,95820,CA,5,2,1516,Mon May 19 00:00:00 EDT 2008,150000,38.534508,-121.467907,False,False,True
391,2848 PROVO WAY,SACRAMENTO,95822,CA,3,2,1646,Mon May 19 00:00:00 EDT 2008,150000,38.489759,-121.474754,False,False,True
392,6045 EHRHARDT AVE,SACRAMENTO,95823,CA,3,2,1676,Mon May 19 00:00:00 EDT 2008,155000,38.457157,-121.433065,False,False,True
393,1223 LAMBERTON CIR,SACRAMENTO,95838,CA,3,2,1370,Mon May 19 00:00:00 EDT 2008,155435,38.646677,-121.437573,False,False,True
394,1223 LAMBERTON CIR,SACRAMENTO,95838,CA,3,2,1370,Mon May 19 00:00:00 EDT 2008,155500,38.646677,-121.437573,False,False,True
395,6000 BIRCHGLADE WAY,CITRUS HEIGHTS,95621,CA,4,2,1351,Mon May 19 00:00:00 EDT 2008,158000,38.70166,-121.323249,False,False,True
396,7204 THOMAS DR,NORTH HIGHLANDS,95660,CA,3,2,1152,Mon May 19 00:00:00 EDT 2008,158000,38.697898,-121.377687,False,False,True
397,8363 LANGTREE WAY,SACRAMENTO,95823,CA,3,2,1452,Mon May 19 00:00:00 EDT 2008,160000,38.45356,-121.435959,False,False,True
398,1675 VERNON ST Unit 8,ROSEVILLE,95678,CA,2,1,990,Mon May 19 00:00:00 EDT 2008,160000,38.734136,-121.299639,False,False,True
399,6632 IBEX WOODS CT,CITRUS HEIGHTS,95621,CA,2,2,1162,Mon May 19 00:00:00 EDT 2008,164000,38.720868,-121.309855,False,False,True
400,117 EVCAR WAY,RIO LINDA,95673,CA,3,2,1182,Mon May 19 00:00:00 EDT 2008,164000,38.687659,-121.4633,False,False,True
401,6485 LAGUNA MIRAGE LN,ELK GROVE,95758,CA,2,2,1112,Mon May 19 00:00:00 EDT 2008,165000,38.42465,-121.430137,False,False,True
402,746 MOOSE CREEK WAY,GALT,95632,CA,3,2,1100,Mon May 19 00:00:00 EDT 2008,167000,38.283085,-121.302071,False,False,True
403,8306 CURLEW CT,CITRUS HEIGHTS,95621,CA,4,2,1280,Mon May 19 00:00:00 EDT 2008,167293,38.715781,-121.298519,False,False,True
404,8306 CURLEW CT,CITRUS HEIGHTS,95621,CA,4,2,1280,Mon May 19 00:00:00 EDT 2008,167293,38.715781,-121.298519,False,False,True
405,5217 ARGO WAY,SACRAMENTO,95820,CA,3,1,1039,Mon May 19 00:00:00 EDT 2008,168000,38.52774,-121.433669,False,False,True
406,7108 HEATHER TREE DR,SACRAMENTO,95842,CA,3,2,1159,Mon May 19 00:00:00 EDT 2008,170000,38.695677,-121.36022,False,False,True
407,2956 DAVENPORT WAY,SACRAMENTO,95833,CA,4,2,1917,Mon May 19 00:00:00 EDT 2008,170000,38.620687,-121.482619,False,False,True
408,10062 LINCOLN VILLAGE DR,SACRAMENTO,95827,CA,3,2,1520,Mon May 19 00:00:00 EDT 2008,170000,38.564,-121.320023,False,False,True
409,332 PALIN AVE,GALT,95632,CA,3,2,1204,Mon May 19 00:00:00 EDT 2008,174000,38.260467,-121.302636,False,False,True
410,4649 FREEWAY CIR,SACRAMENTO,95841,CA,3,2,1120,Mon May 19 00:00:00 EDT 2008,178000,38.658734,-121.357196,False,False,True
411,8593 DERLIN WAY,SACRAMENTO,95823,CA,3,2,1436,Mon May 19 00:00:00 EDT 2008,180000,38.447585,-121.426627,False,False,True
412,9273 PREMIER WAY,SACRAMENTO,95826,CA,3,2,1451,Mon May 19 00:00:00 EDT 2008,180000,38.55992,-121.352539,False,False,True
413,8032 DUSENBERG CT,SACRAMENTO,95828,CA,4,2,1638,Mon May 19 00:00:00 EDT 2008,180000,38.466499,-121.381119,False,False,True
414,7110 STELLA LN Unit 15,CARMICHAEL,95608,CA,2,2,1000,Mon May 19 00:00:00 EDT 2008,182000,38.637396,-121.300055,True,False,False
415,1786 PIEDMONT WAY,ROSEVILLE,95661,CA,3,1,1152,Mon May 19 00:00:00 EDT 2008,188325,38.72748,-121.256537,False,False,True
416,1347 HIDALGO CIR,ROSEVILLE,95747,CA,3,2,1154,Mon May 19 00:00:00 EDT 2008,191500,38.747878,-121.311279,False,False,True
417,212 CAPPUCINO WAY,SACRAMENTO,95838,CA,3,2,1353,Mon May 19 00:00:00 EDT 2008,192000,38.657811,-121.465327,False,False,True
418,5938 WOODBRIAR WAY,CITRUS HEIGHTS,95621,CA,3,2,1329,Mon May 19 00:00:00 EDT 2008,192700,38.706152,-121.325399,False,False,True
419,3801 WILDROSE WAY,SACRAMENTO,95826,CA,3,1,1356,Mon May 19 00:00:00 EDT 2008,195000,38.544368,-121.369979,False,False,True
420,508 SAMUEL WAY,SACRAMENTO,95838,CA,3,2,1505,Mon May 19 00:00:00 EDT 2008,197654,38.645689,-121.452766,False,False,True
421,6128 CARL SANDBURG CIR,SACRAMENTO,95842,CA,3,1,1009,Mon May 19 00:00:00 EDT 2008,198000,38.681541,-121.355616,False,False,True
422,1 KENNELFORD CIR,SACRAMENTO,95823,CA,3,2,1144,Mon May 19 00:00:00 EDT 2008,200345,38.46452,-121.427606,False,False,True
423,909 SINGINGWOOD RD,SACRAMENTO,95864,CA,2,1,930,Mon May 19 00:00:00 EDT 2008,203000,38.581471,-121.38839,False,False,True
424,6671 FOXWOOD CT,SACRAMENTO,95841,CA,4,2,1766,Mon May 19 00:00:00 EDT 2008,207000,38.687943,-121.328883,False,False,True
425,8165 AYN RAND CT,SACRAMENTO,95828,CA,4,3,1940,Mon May 19 00:00:00 EDT 2008,208000,38.468639,-121.403265,False,False,True
426,9474 VILLAGE TREE DR,ELK GROVE,95758,CA,4,2,1776,Mon May 19 00:00:00 EDT 2008,210000,38.413947,-121.408276,False,False,True
427,7213 CALVIN DR,CITRUS HEIGHTS,95621,CA,3,1,1258,Mon May 19 00:00:00 EDT 2008,212000,38.698154,-121.298375,False,False,True
428,8167 DERBY PARK CT,SACRAMENTO,95828,CA,4,2,1872,Mon May 19 00:00:00 EDT 2008,213675,38.460492,-121.373379,False,False,True
429,6344 LAGUNA MIRAGE LN,ELK GROVE,95758,CA,2,2,1112,Mon May 19 00:00:00 EDT 2008,213697,38.423963,-121.428875,False,False,True
430,2945 RED HAWK WAY,SACRAMENTO,95833,CA,4,2,1856,Mon May 19 00:00:00 EDT 2008,215000,38.619675,-121.496903,False,False,True
431,3228 I ST,SACRAMENTO,95816,CA,4,3,1939,Mon May 19 00:00:00 EDT 2008,215000,38.573844,-121.462839,False,False,True
432,308 ATKINSON ST,ROSEVILLE,95678,CA,3,1,998,Mon May 19 00:00:00 EDT 2008,215100,38.746794,-121.29971,False,False,True
433,624 HOVEY WAY,ROSEVILLE,95678,CA,3,2,1758,Mon May 19 00:00:00 EDT 2008,217500,38.756149,-121.306479,False,False,True
434,110 COPPER LEAF WAY,SACRAMENTO,95838,CA,3,2,2142,Mon May 19 00:00:00 EDT 2008,218000,38.658466,-121.460661,False,False,True
435,7535 ALMA VISTA WAY,SACRAMENTO,95831,CA,2,1,950,Mon May 19 00:00:00 EDT 2008,220000,38.48403,-121.507641,False,False,True
436,7423 WILSALL CT,ELK GROVE,95758,CA,4,3,1739,Mon May 19 00:00:00 EDT 2008,221000,38.417026,-121.416821,False,False,True
437,8629 VIA ALTA WAY,ELK GROVE,95624,CA,3,2,1516,Mon May 19 00:00:00 EDT 2008,222900,38.398245,-121.380615,False,False,True
438,3318 DAVIDSON DR,ANTELOPE,95843,CA,3,1,988,Mon May 19 00:00:00 EDT 2008,223139,38.705753,-121.388917,False,False,True
439,913 COBDEN CT,GALT,95632,CA,4,2,1555,Mon May 19 00:00:00 EDT 2008,225500,38.282001,-121.295902,False,False,True
440,4419 79TH ST,SACRAMENTO,95820,CA,3,2,1212,Mon May 19 00:00:00 EDT 2008,228327,38.534827,-121.412545,False,False,True
441,3012 SPOONWOOD WAY,SACRAMENTO,95833,CA,4,2,1871,Mon May 19 00:00:00 EDT 2008,230000,38.62478,-121.523474,False,False,True
442,8728 CRYSTAL RIVER WAY,SACRAMENTO,95828,CA,3,2,1302,Mon May 19 00:00:00 EDT 2008,230000,38.47547,-121.380055,False,False,True
443,4709 AMBER LN Unit 1,SACRAMENTO,95841,CA,2,1,756,Mon May 19 00:00:00 EDT 2008,230522,38.657789,-121.354994,True,False,False
444,4508 OLD DAIRY DR,ANTELOPE,95843,CA,4,3,2026,Mon May 19 00:00:00 EDT 2008,231200,38.72286,-121.358939,False,False,True
445,312 RIVER ISLE WAY,SACRAMENTO,95831,CA,3,2,1375,Mon May 19 00:00:00 EDT 2008,232000,38.49026,-121.550527,False,False,True
446,301 OLIVADI WAY,SACRAMENTO,95834,CA,2,2,1250,Mon May 19 00:00:00 EDT 2008,232500,38.644406,-121.549049,True,False,False
447,5636 25TH ST,SACRAMENTO,95822,CA,3,1,1058,Mon May 19 00:00:00 EDT 2008,233641,38.523828,-121.481139,False,False,True
448,8721 SPRUCE RIDGE WAY,ANTELOPE,95843,CA,3,2,1187,Mon May 19 00:00:00 EDT 2008,234000,38.727657,-121.391028,False,False,True
449,7461 WINDBRIDGE DR,SACRAMENTO,95831,CA,2,2,1324,Mon May 19 00:00:00 EDT 2008,234500,38.48797,-121.530229,False,False,True
450,8101 LEMON COVE CT,SACRAMENTO,95828,CA,4,3,1936,Mon May 19 00:00:00 EDT 2008,235000,38.462981,-121.408288,False,False,True
451,10949 SCOTSMAN WAY,RANCHO CORDOVA,95670,CA,5,4,2382,Mon May 19 00:00:00 EDT 2008,236000,38.603686,-121.277844,False,True,False
452,617 WILLOW CREEK DR,FOLSOM,95630,CA,3,2,1427,Mon May 19 00:00:00 EDT 2008,236073,38.679626,-121.142609,False,False,True
453,3301 PARK DR Unit 1914,SACRAMENTO,95835,CA,3,2,1678,Mon May 19 00:00:00 EDT 2008,238000,38.665296,-121.531993,True,False,False
454,709 CIMMARON CT,GALT,95632,CA,4,2,1798,Mon May 19 00:00:00 EDT 2008,238861,38.277177,-121.303747,False,False,True
455,3305 RIO ROCA CT,ANTELOPE,95843,CA,4,3,2652,Mon May 19 00:00:00 EDT 2008,239700,38.725079,-121.387698,False,False,True
456,9080 BEDROCK CT,SACRAMENTO,95829,CA,4,2,1816,Mon May 19 00:00:00 EDT 2008,240000,38.456939,-121.362965,False,False,True
457,100 TOURMALINE CIR,SACRAMENTO,95834,CA,5,3,3076,Mon May 19 00:00:00 EDT 2008,240000,38.63437,-121.510779,False,False,True
458,6411 RED BIRCH WAY,ELK GROVE,95758,CA,4,2,1844,Mon May 19 00:00:00 EDT 2008,241000,38.43461,-121.429316,False,False,True
459,4867 LAGUNA DR,SACRAMENTO,95823,CA,3,2,1306,Mon May 19 00:00:00 EDT 2008,245000,38.46179,-121.445371,False,False,True
460,3662 RIVER DR,SACRAMENTO,95833,CA,4,3,2447,Mon May 19 00:00:00 EDT 2008,246000,38.604969,-121.54255,False,False,True
461,6943 WOLFGRAM WAY,SACRAMENTO,95828,CA,4,2,1176,Mon May 19 00:00:00 EDT 2008,247234,38.489215,-121.419546,False,False,True
462,77 RINETTI WAY,RIO LINDA,95673,CA,4,2,1182,Mon May 19 00:00:00 EDT 2008,247480,38.687021,-121.463151,False,False,True
463,1316 I ST,RIO LINDA,95673,CA,3,1,1160,Mon May 19 00:00:00 EDT 2008,249862,38.683674,-121.435204,False,False,True
464,2130 CATHERWOOD WAY,SACRAMENTO,95835,CA,3,2,1424,Mon May 19 00:00:00 EDT 2008,251000,38.675506,-121.510987,False,False,True
465,8304 JUGLANS DR,ORANGEVALE,95662,CA,4,2,1574,Mon May 19 00:00:00 EDT 2008,252155,38.691829,-121.249033,False,False,True
466,5308 MARBURY WAY,ANTELOPE,95843,CA,3,2,1830,Mon May 19 00:00:00 EDT 2008,254172,38.710221,-121.341707,False,False,True
467,9182 LAKEMONT DR,ELK GROVE,95624,CA,4,2,1724,Mon May 19 00:00:00 EDT 2008,258000,38.451353,-121.358776,False,False,True
468,2231 COUNTRY VILLA CT,AUBURN,95603,CA,2,2,1255,Mon May 19 00:00:00 EDT 2008,260000,38.931671,-121.097862,True,False,False
470,361 MAHONIA CIR,SACRAMENTO,95835,CA,4,3,2175,Mon May 19 00:00:00 EDT 2008,261000,38.676172,-121.509761,False,False,True
471,3427 LA CADENA WAY,SACRAMENTO,95835,CA,4,2,1904,Mon May 19 00:00:00 EDT 2008,261000,38.681194,-121.537351,False,False,True
472,955 BIG SUR CT,EL DORADO HILLS,95762,CA,4,2,1808,Mon May 19 00:00:00 EDT 2008,262500,38.664347,-121.076529,False,False,True
473,11826 DIONYSUS WAY,RANCHO CORDOVA,95742,CA,4,2,2711,Mon May 19 00:00:00 EDT 2008,266000,38.551046,-121.239411,False,False,True
474,5847 DEL CAMPO LN,CARMICHAEL,95608,CA,3,1,1713,Mon May 19 00:00:00 EDT 2008,266000,38.671995,-121.324339,False,False,True
475,5635 FOXVIEW WAY,ELK GROVE,95757,CA,3,2,1457,Mon May 19 00:00:00 EDT 2008,270000,38.395256,-121.438249,False,False,True
476,10372 VIA CINTA CT,ELK GROVE,95757,CA,4,3,2724,Mon May 19 00:00:00 EDT 2008,274425,38.380089,-121.428186,False,False,True
478,7744 SOUTHBREEZE DR,SACRAMENTO,95828,CA,3,2,1468,Mon May 19 00:00:00 EDT 2008,275336,38.476932,-121.378349,False,False,True
479,2242 ABLE WAY,SACRAMENTO,95835,CA,4,3,2550,Mon May 19 00:00:00 EDT 2008,277980,38.666074,-121.509743,False,False,True
480,1042 STARBROOK DR,GALT,95632,CA,4,2,1928,Mon May 19 00:00:00 EDT 2008,280000,38.285611,-121.293063,False,False,True
481,1219 G ST,SACRAMENTO,95814,CA,3,3,1922,Mon May 19 00:00:00 EDT 2008,284686,38.582818,-121.489096,False,False,True
482,6220 OPUS CT,CITRUS HEIGHTS,95621,CA,3,2,1343,Mon May 19 00:00:00 EDT 2008,284893,38.715853,-121.317095,False,False,True
483,5419 HAVENHURST CIR,ROCKLIN,95677,CA,3,2,1510,Mon May 19 00:00:00 EDT 2008,285000,38.786746,-121.209957,False,False,True
484,220 OLD AIRPORT RD,AUBURN,95603,CA,2,2,960,Mon May 19 00:00:00 EDT 2008,285000,38.939802,-121.054575,False,True,False
485,4622 MEYER WAY,CARMICHAEL,95608,CA,4,2,1559,Mon May 19 00:00:00 EDT 2008,285000,38.64913,-121.310667,False,False,True
486,4885 SUMMIT VIEW DR,EL DORADO,95623,CA,3,2,1624,Mon May 19 00:00:00 EDT 2008,289000,38.673285,-120.879176,False,False,True
487,26 JEANROSS CT,SACRAMENTO,95832,CA,5,3,2992,Mon May 19 00:00:00 EDT 2008,295000,38.473162,-121.491085,False,False,True
488,4800 MAPLEPLAIN AVE,ELK GROVE,95758,CA,4,2,2109,Mon May 19 00:00:00 EDT 2008,296000,38.432848,-121.449237,False,False,True
489,10629 BASIE WAY,RANCHO CORDOVA,95670,CA,4,2,1524,Mon May 19 00:00:00 EDT 2008,296056,38.579,-121.292627,False,False,True
490,8612 WILLOW GROVE WAY,SACRAMENTO,95828,CA,3,2,1248,Mon May 19 00:00:00 EDT 2008,297359,38.464994,-121.386962,False,False,True
491,62 DE FER CIR,SACRAMENTO,95823,CA,4,2,1876,Mon May 19 00:00:00 EDT 2008,299940,38.49254,-121.463316,False,False,True
493,3253 ABOTO WAY,RANCHO CORDOVA,95670,CA,4,3,1851,Mon May 19 00:00:00 EDT 2008,305000,38.57727,-121.285591,False,False,True
495,251 CHANGO CIR,SACRAMENTO,95835,CA,4,2,2218,Mon May 19 00:00:00 EDT 2008,311328,38.68237,-121.539147,False,False,True
496,8205 WEYBURN CT,SACRAMENTO,95828,CA,3,2,1394,Mon May 19 00:00:00 EDT 2008,313138,38.47316,-121.403893,False,False,True
497,8788 LA MARGARITA WAY,SACRAMENTO,95828,CA,3,2,1410,Mon May 19 00:00:00 EDT 2008,316630,38.468185,-121.375694,False,False,True
498,5912 DEEPDALE WAY,ELK GROVE,95758,CA,5,3,3468,Mon May 19 00:00:00 EDT 2008,320000,38.439565,-121.436606,False,False,True
499,4712 PISMO BEACH DR,ANTELOPE,95843,CA,5,3,2346,Mon May 19 00:00:00 EDT 2008,320000,38.707705,-121.354153,False,False,True
500,4741 PACIFIC PARK DR,ANTELOPE,95843,CA,5,3,2347,Mon May 19 00:00:00 EDT 2008,325000,38.709299,-121.353056,False,False,True
501,310 GROTH CIR,SACRAMENTO,95834,CA,4,2,1659,Mon May 19 00:00:00 EDT 2008,328578,38.638764,-121.531827,False,False,True
502,6121 WILD FOX CT,ELK GROVE,95757,CA,3,3,2442,Mon May 19 00:00:00 EDT 2008,331000,38.406758,-121.431669,False,False,True
504,29 COOL FOUNTAIN CT,SACRAMENTO,95833,CA,4,2,2155,Mon May 19 00:00:00 EDT 2008,340000,38.606906,-121.54132,False,False,True
506,8909 BILLFISH WAY,SACRAMENTO,95828,CA,3,2,1810,Mon May 19 00:00:00 EDT 2008,345746,38.475433,-121.372584,False,False,True
507,6232 GUS WAY,ELK GROVE,95757,CA,4,2,2789,Mon May 19 00:00:00 EDT 2008,351000,38.388129,-121.43117,False,False,True
508,200 OAKWILDE ST,GALT,95632,CA,4,2,1606,Mon May 19 00:00:00 EDT 2008,353767,38.2535,-121.31812,False,False,True
510,200 ALLAIRE CIR,SACRAMENTO,95835,CA,4,2,2166,Mon May 19 00:00:00 EDT 2008,356035,38.68318,-121.53484,False,False,True
512,5479 NICKMAN WAY,SACRAMENTO,95835,CA,4,2,1871,Mon May 19 00:00:00 EDT 2008,360552,38.672966,-121.502748,False,False,True
513,2103 BURBERRY WAY,SACRAMENTO,95835,CA,3,2,1800,Mon May 19 00:00:00 EDT 2008,362305,38.67342,-121.508542,False,False,True
514,2450 SAN JOSE WAY,SACRAMENTO,95817,CA,3,1,1683,Mon May 19 00:00:00 EDT 2008,365000,38.553596,-121.459483,False,False,True
517,2802 BLACK OAK DR,ROCKLIN,95765,CA,2,2,1596,Mon May 19 00:00:00 EDT 2008,370000,38.837006,-121.232024,False,False,True
519,10112 LAMBEAU CT,ELK GROVE,95757,CA,3,2,1179,Mon May 19 00:00:00 EDT 2008,378000,38.390328,-121.448022,False,False,True
521,3622 CURTIS DR,SACRAMENTO,95818,CA,3,1,1639,Mon May 19 00:00:00 EDT 2008,388000,38.541735,-121.480098,False,False,True
522,11817 OPAL RIDGE WAY,RANCHO CORDOVA,95742,CA,5,3,3281,Mon May 19 00:00:00 EDT 2008,395100,38.551083,-121.237476,False,False,True
523,170 LAGOMARSINO WAY,SACRAMENTO,95819,CA,3,2,1697,Mon May 19 00:00:00 EDT 2008,400000,38.574894,-121.435806,False,False,True
525,3361 ALDER CANYON WAY,ANTELOPE,95843,CA,4,3,2085,Mon May 19 00:00:00 EDT 2008,408431,38.727649,-121.385656,False,False,True
527,398 LINDLEY DR,SACRAMENTO,95815,CA,4,2,1744,Mon May 19 00:00:00 EDT 2008,416767,38.622359,-121.457582,False,True,False
529,169 BAURER CIR,FOLSOM,95630,CA,4,3,1939,Mon May 19 00:00:00 EDT 2008,423000,38.66695,-121.120729,False,False,True
531,1315 KONDOS AVE,SACRAMENTO,95814,CA,2,3,1788,Mon May 19 00:00:00 EDT 2008,427500,38.571943,-121.492106,False,False,True
532,4966 CHARTER RD,ROCKLIN,95765,CA,3,2,1691,Mon May 19 00:00:00 EDT 2008,430922,38.82553,-121.254698,False,False,True
533,9516 LAGUNA LAKE WAY,ELK GROVE,95758,CA,4,2,2002,Mon May 19 00:00:00 EDT 2008,445000,38.411258,-121.431348,False,False,True
534,5201 BLOSSOM RANCH DR,ELK GROVE,95757,CA,4,4,4303,Mon May 19 00:00:00 EDT 2008,450000,38.399436,-121.444041,False,False,True
535,3027 PALMATE WAY,SACRAMENTO,95834,CA,5,3,4246,Mon May 19 00:00:00 EDT 2008,452000,38.628955,-121.529269,False,False,True
536,500 WINCHESTER CT,ROSEVILLE,95661,CA,3,2,2274,Mon May 19 00:00:00 EDT 2008,470000,38.73988,-121.248929,False,False,True
538,6935 ELM TREE LN,ORANGEVALE,95662,CA,4,4,3056,Mon May 19 00:00:00 EDT 2008,475000,38.693041,-121.23294,False,False,True
539,9605 GOLF COURSE LN,ELK GROVE,95758,CA,3,3,2503,Mon May 19 00:00:00 EDT 2008,484500,38.409689,-121.446059,False,False,True
542,100 CHELSEA CT,FOLSOM,95630,CA,3,2,1905,Mon May 19 00:00:00 EDT 2008,500000,38.69435,-121.177259,False,False,True
543,1500 ORANGE HILL LN,PENRYN,95663,CA,3,2,1320,Mon May 19 00:00:00 EDT 2008,506688,38.862708,-121.162092,False,False,True
546,2049 EMPIRE MINE CIR,GOLD RIVER,95670,CA,4,2,3037,Mon May 19 00:00:00 EDT 2008,528000,38.629299,-121.249021,False,False,True
547,9360 MAGOS RD,WILTON,95693,CA,5,2,3741,Mon May 19 00:00:00 EDT 2008,579093,38.416809,-121.240628,False,False,True
548,104 CATLIN CT,FOLSOM,95630,CA,4,3,2660,Mon May 19 00:00:00 EDT 2008,636000,38.684459,-121.145935,False,False,True
549,4734 GIBBONS DR,CARMICHAEL,95608,CA,4,3,3357,Mon May 19 00:00:00 EDT 2008,668365,38.63558,-121.353639,False,False,True
550,4629 DORCHESTER LN,GRANITE BAY,95746,CA,5,3,2896,Mon May 19 00:00:00 EDT 2008,676200,38.723545,-121.216025,False,False,True
551,2400 COUNTRYSIDE DR,PLACERVILLE,95667,CA,3,2,2025,Mon May 19 00:00:00 EDT 2008,677048,38.737452,-120.910963,False,False,True
552,12901 FURLONG DR,WILTON,95693,CA,5,3,3788,Mon May 19 00:00:00 EDT 2008,691659,38.413535,-121.188211,False,False,True
553,6222 CALLE MONTALVO CIR,GRANITE BAY,95746,CA,5,3,3670,Mon May 19 00:00:00 EDT 2008,760000,38.779435,-121.146676,False,False,True
603,8208 WOODYARD WAY,CITRUS HEIGHTS,95621,CA,3,2,1166,Fri May 16 00:00:00 EDT 2008,30000,38.715322,-121.314787,False,False,True
605,15 LOORZ CT,SACRAMENTO,95823,CA,2,1,838,Fri May 16 00:00:00 EDT 2008,55422,38.471646,-121.435158,False,False,True
606,5805 DOTMAR WAY,NORTH HIGHLANDS,95660,CA,2,1,904,Fri May 16 00:00:00 EDT 2008,63000,38.672642,-121.380343,False,False,True
607,2332 CAMBRIDGE ST,SACRAMENTO,95815,CA,2,1,1032,Fri May 16 00:00:00 EDT 2008,65000,38.608085,-121.449651,False,False,True
608,3812 BELDEN ST,SACRAMENTO,95838,CA,2,1,904,Fri May 16 00:00:00 EDT 2008,65000,38.636833,-121.44164,False,False,True
609,3348 40TH ST,SACRAMENTO,95817,CA,2,1,1080,Fri May 16 00:00:00 EDT 2008,65000,38.544162,-121.460652,False,False,True
610,127 QUASAR CIR,SACRAMENTO,95822,CA,2,2,990,Fri May 16 00:00:00 EDT 2008,66500,38.493504,-121.475304,False,False,True
611,3812 CYPRESS ST,SACRAMENTO,95838,CA,2,1,900,Fri May 16 00:00:00 EDT 2008,71000,38.636877,-121.444948,False,False,True
612,5821 64TH ST,SACRAMENTO,95824,CA,2,1,861,Fri May 16 00:00:00 EDT 2008,75000,38.521202,-121.428146,False,False,True
613,8248 CENTER PKWY,SACRAMENTO,95823,CA,2,1,906,Fri May 16 00:00:00 EDT 2008,77000,38.459002,-121.428794,True,False,False
614,1171 SONOMA AVE,SACRAMENTO,95815,CA,2,1,1011,Fri May 16 00:00:00 EDT 2008,85000,38.6238,-121.439872,False,False,True
615,4250 ARDWELL WAY,SACRAMENTO,95823,CA,3,2,1089,Fri May 16 00:00:00 EDT 2008,95625,38.466938,-121.455631,False,False,True
616,3104 CLAY ST,SACRAMENTO,95815,CA,2,1,832,Fri May 16 00:00:00 EDT 2008,96140,38.62391,-121.439208,False,False,True
617,6063 LAND PARK DR,SACRAMENTO,95822,CA,2,1,800,Fri May 16 00:00:00 EDT 2008,104250,38.517029,-121.513809,True,False,False
618,4738 OAKHOLLOW DR,SACRAMENTO,95842,CA,4,2,1292,Fri May 16 00:00:00 EDT 2008,105000,38.679598,-121.356035,False,False,True
619,1401 STERLING ST,SACRAMENTO,95822,CA,2,1,810,Fri May 16 00:00:00 EDT 2008,108000,38.520319,-121.504727,False,False,True
620,3715 DIDCOT CIR,SACRAMENTO,95838,CA,4,2,1064,Fri May 16 00:00:00 EDT 2008,109000,38.635232,-121.460098,False,False,True
621,2426 RASHAWN DR,RANCHO CORDOVA,95670,CA,2,1,911,Fri May 16 00:00:00 EDT 2008,115000,38.610852,-121.273278,False,False,True
622,4800 WESTLAKE PKWY Unit 410,SACRAMENTO,95835,CA,1,1,846,Fri May 16 00:00:00 EDT 2008,115000,38.658812,-121.542345,True,False,False
623,3409 VIRGO ST,SACRAMENTO,95827,CA,3,2,1320,Fri May 16 00:00:00 EDT 2008,115500,38.563402,-121.327747,False,False,True
624,1110 PINEDALE AVE,SACRAMENTO,95838,CA,3,2,1410,Fri May 16 00:00:00 EDT 2008,115620,38.660173,-121.440216,False,False,True
625,2361 LA LOMA DR,RANCHO CORDOVA,95670,CA,3,2,1115,Fri May 16 00:00:00 EDT 2008,116000,38.59368,-121.316054,False,False,True
626,1455 64TH AVE,SACRAMENTO,95822,CA,3,2,1169,Fri May 16 00:00:00 EDT 2008,122000,38.492177,-121.503392,False,False,True
627,7328 SPRINGMAN ST,SACRAMENTO,95822,CA,3,2,1164,Fri May 16 00:00:00 EDT 2008,122500,38.491991,-121.477636,False,False,True
628,119 SAINT MARIE CIR,SACRAMENTO,95823,CA,4,2,1341,Fri May 16 00:00:00 EDT 2008,123000,38.481454,-121.446644,False,False,True
629,12 COSTA BRASE CT,SACRAMENTO,95838,CA,3,2,1219,Fri May 16 00:00:00 EDT 2008,124000,38.655554,-121.464275,False,False,True
630,6813 SCOTER WAY,SACRAMENTO,95842,CA,4,2,1127,Fri May 16 00:00:00 EDT 2008,124000,38.69043,-121.361035,False,False,True
631,6548 GRAYLOCK LN,NORTH HIGHLANDS,95660,CA,3,2,1272,Fri May 16 00:00:00 EDT 2008,124413,38.686061,-121.369949,False,False,True
632,1630 GLIDDEN AVE,SACRAMENTO,95822,CA,4,2,1253,Fri May 16 00:00:00 EDT 2008,125000,38.482717,-121.499683,False,False,True
633,7825 DALEWOODS WAY,SACRAMENTO,95828,CA,3,2,1120,Fri May 16 00:00:00 EDT 2008,130000,38.477297,-121.411513,False,False,True
634,4073 TRESLER AVE,NORTH HIGHLANDS,95660,CA,2,2,1118,Fri May 16 00:00:00 EDT 2008,131750,38.659016,-121.370457,False,False,True
635,4288 DYMIC WAY,SACRAMENTO,95838,CA,4,3,1890,Fri May 16 00:00:00 EDT 2008,137721,38.646541,-121.441139,False,False,True
636,1158 SAN IGNACIO WAY,SACRAMENTO,95833,CA,3,2,1260,Fri May 16 00:00:00 EDT 2008,137760,38.623045,-121.486279,False,False,True
637,4904 J PKWY,SACRAMENTO,95823,CA,3,2,1400,Fri May 16 00:00:00 EDT 2008,138000,38.487297,-121.44295,False,False,True
638,2931 HOWE AVE,SACRAMENTO,95821,CA,3,1,1264,Fri May 16 00:00:00 EDT 2008,140000,38.619012,-121.415329,False,False,True
639,5531 JANSEN DR,SACRAMENTO,95824,CA,3,1,1060,Fri May 16 00:00:00 EDT 2008,145000,38.522015,-121.438713,False,False,True
640,7836 ORCHARD WOODS CIR,SACRAMENTO,95828,CA,2,2,1132,Fri May 16 00:00:00 EDT 2008,145000,38.47955,-121.410867,False,False,True
641,4055 DEERBROOK DR,SACRAMENTO,95823,CA,3,2,1466,Fri May 16 00:00:00 EDT 2008,150000,38.472117,-121.459589,False,False,True
642,9937 BURLINE ST,SACRAMENTO,95827,CA,3,2,1092,Fri May 16 00:00:00 EDT 2008,150000,38.559641,-121.32316,False,False,True
643,6948 MIRADOR WAY,SACRAMENTO,95828,CA,4,2,1628,Fri May 16 00:00:00 EDT 2008,151000,38.493484,-121.42035,False,False,True
644,4909 RUGER CT,SACRAMENTO,95842,CA,3,2,960,Fri May 16 00:00:00 EDT 2008,155000,38.68747,-121.349234,False,False,True
645,7204 KERSTEN ST,CITRUS HEIGHTS,95621,CA,3,2,1075,Fri May 16 00:00:00 EDT 2008,155800,38.695863,-121.300814,False,False,True
646,3150 ROSEMONT DR,SACRAMENTO,95826,CA,3,2,1428,Fri May 16 00:00:00 EDT 2008,156142,38.554927,-121.35521,False,False,True
647,8200 STEINBECK WAY,SACRAMENTO,95828,CA,4,2,1358,Fri May 16 00:00:00 EDT 2008,158000,38.474854,-121.404726,False,False,True
648,8198 STEVENSON AVE,SACRAMENTO,95828,CA,6,4,2475,Fri May 16 00:00:00 EDT 2008,159900,38.465271,-121.40426,False,True,False
649,6824 OLIVE TREE WAY,CITRUS HEIGHTS,95610,CA,3,2,1410,Fri May 16 00:00:00 EDT 2008,160000,38.689239,-121.267737,False,False,True
650,3536 SUN MAIDEN WAY,ANTELOPE,95843,CA,3,2,1711,Fri May 16 00:00:00 EDT 2008,161500,38.70968,-121.382328,False,False,True
651,4517 OLYMPIAD WAY,SACRAMENTO,95826,CA,4,2,1483,Fri May 16 00:00:00 EDT 2008,161600,38.536751,-121.359154,False,False,True
652,925 COBDEN CT,GALT,95632,CA,3,2,1140,Fri May 16 00:00:00 EDT 2008,162000,38.282047,-121.295812,False,False,True
653,8225 SCOTTSDALE DR,SACRAMENTO,95828,CA,4,2,1549,Fri May 16 00:00:00 EDT 2008,165000,38.487864,-121.402476,False,False,True
654,8758 LEMAS RD,SACRAMENTO,95828,CA,3,2,1410,Fri May 16 00:00:00 EDT 2008,165000,38.467487,-121.377055,False,False,True
655,6121 ALPINESPRING WAY,ELK GROVE,95758,CA,3,2,1240,Fri May 16 00:00:00 EDT 2008,167293,38.434075,-121.432623,False,False,True
656,5937 YORK GLEN WAY,SACRAMENTO,95842,CA,5,2,1712,Fri May 16 00:00:00 EDT 2008,168000,38.677003,-121.354454,False,False,True
657,6417 SUNNYFIELD WAY,SACRAMENTO,95823,CA,4,2,1580,Fri May 16 00:00:00 EDT 2008,168000,38.449153,-121.428272,False,False,True
658,4008 GREY LIVERY WAY,ANTELOPE,95843,CA,3,2,1669,Fri May 16 00:00:00 EDT 2008,168750,38.71846,-121.370862,False,False,True
659,8920 ROSETTA CIR,SACRAMENTO,95826,CA,3,1,1029,Fri May 16 00:00:00 EDT 2008,168750,38.544374,-121.370874,False,False,True
660,8300 LICHEN DR,CITRUS HEIGHTS,95621,CA,3,1,1103,Fri May 16 00:00:00 EDT 2008,170000,38.71641,-121.306239,False,False,True
661,8884 AMBERJACK WAY,SACRAMENTO,95828,CA,3,2,2161,Fri May 16 00:00:00 EDT 2008,170250,38.479343,-121.372553,False,False,True
662,4480 VALLEY HI DR,SACRAMENTO,95823,CA,3,2,1650,Fri May 16 00:00:00 EDT 2008,173000,38.466781,-121.450955,False,False,True
663,2250 FOREBAY RD,POLLOCK PINES,95726,CA,3,1,1320,Fri May 16 00:00:00 EDT 2008,175000,38.77491,-120.597599,False,False,True
664,3529 FABERGE WAY,SACRAMENTO,95826,CA,3,2,1200,Fri May 16 00:00:00 EDT 2008,176095,38.553275,-121.346218,False,False,True
665,1792 DAWNELLE WAY,SACRAMENTO,95835,CA,3,2,1170,Fri May 16 00:00:00 EDT 2008,176250,38.68271,-121.501697,False,False,True
666,7800 TABARE CT,CITRUS HEIGHTS,95621,CA,3,2,1199,Fri May 16 00:00:00 EDT 2008,178000,38.70799,-121.302979,False,False,True
667,8531 HERMITAGE WAY,SACRAMENTO,95823,CA,4,2,1695,Fri May 16 00:00:00 EDT 2008,179000,38.448452,-121.428536,False,False,True
668,2421 BERRYWOOD DR,RANCHO CORDOVA,95670,CA,3,2,1157,Fri May 16 00:00:00 EDT 2008,180000,38.60868,-121.27849,False,False,True
669,1005 MORENO WAY,SACRAMENTO,95838,CA,3,2,1410,Fri May 16 00:00:00 EDT 2008,180000,38.646206,-121.442767,False,False,True
670,1675 VERNON ST Unit 24,ROSEVILLE,95678,CA,3,2,1174,Fri May 16 00:00:00 EDT 2008,180000,38.734136,-121.299639,False,False,True
671,24 WINDCHIME CT,SACRAMENTO,95823,CA,3,2,1593,Fri May 16 00:00:00 EDT 2008,181000,38.44617,-121.427824,False,False,True
672,540 HARLING CT,RIO LINDA,95673,CA,3,2,1093,Fri May 16 00:00:00 EDT 2008,182000,38.68279,-121.453509,False,False,True
673,1207 CRESCENDO DR,ROSEVILLE,95678,CA,3,2,1770,Fri May 16 00:00:00 EDT 2008,182587,38.72446,-121.292829,False,False,True
674,7577 EDDYLEE WAY,SACRAMENTO,95822,CA,4,2,1436,Fri May 16 00:00:00 EDT 2008,185074,38.48291,-121.491509,False,False,True
675,8369 FOPPIANO WAY,SACRAMENTO,95829,CA,3,2,1124,Fri May 16 00:00:00 EDT 2008,185833,38.453839,-121.357919,False,False,True
676,8817 SAWTELLE WAY,SACRAMENTO,95826,CA,4,2,1139,Fri May 16 00:00:00 EDT 2008,186785,38.565322,-121.374251,False,False,True
677,1910 BONAVISTA WAY,SACRAMENTO,95832,CA,3,2,1638,Fri May 16 00:00:00 EDT 2008,187000,38.476048,-121.494961,False,False,True
678,8 TIDE CT,SACRAMENTO,95833,CA,3,2,1328,Fri May 16 00:00:00 EDT 2008,188335,38.609864,-121.492304,False,False,True
679,8952 ROCKY CREEK CT,ELK GROVE,95758,CA,3,2,1273,Fri May 16 00:00:00 EDT 2008,190000,38.431239,-121.44001,False,False,True
680,435 EXCHANGE ST,SACRAMENTO,95838,CA,3,1,1082,Fri May 16 00:00:00 EDT 2008,190000,38.659434,-121.455236,False,False,True
681,10105 MONTE VALLO CT,SACRAMENTO,95827,CA,4,2,1578,Fri May 16 00:00:00 EDT 2008,190000,38.573917,-121.316916,False,False,True
682,3930 ANNABELLE AVE,ROSEVILLE,95661,CA,2,1,796,Fri May 16 00:00:00 EDT 2008,190000,38.727609,-121.226494,False,False,True
683,4854 TANGERINE AVE,SACRAMENTO,95823,CA,3,2,1386,Fri May 16 00:00:00 EDT 2008,191250,38.478239,-121.446326,False,False,True
684,2909 SHAWN WAY,RANCHO CORDOVA,95670,CA,3,2,1452,Fri May 16 00:00:00 EDT 2008,193000,38.589925,-121.299059,False,False,True
685,4290 BLACKFORD WAY,SACRAMENTO,95823,CA,3,2,1513,Fri May 16 00:00:00 EDT 2008,193500,38.470494,-121.454162,False,False,True
687,7015 WOODSIDE DR,SACRAMENTO,95842,CA,4,2,1578,Fri May 16 00:00:00 EDT 2008,195000,38.693071,-121.332365,False,False,True
688,6019 CHESHIRE WAY,CITRUS HEIGHTS,95610,CA,4,3,1736,Fri May 16 00:00:00 EDT 2008,195000,38.676437,-121.279165,False,False,True
690,2561 VERNA WAY,SACRAMENTO,95821,CA,3,1,1473,Fri May 16 00:00:00 EDT 2008,195000,38.611055,-121.369964,False,False,True
691,3522 22ND AVE,SACRAMENTO,95820,CA,3,1,1150,Fri May 16 00:00:00 EDT 2008,198000,38.532725,-121.469078,False,False,True
692,2880 CANDIDO DR,SACRAMENTO,95833,CA,3,2,1127,Fri May 16 00:00:00 EDT 2008,199900,38.618019,-121.510215,False,False,True
693,6908 PIN OAK CT,FAIR OAKS,95628,CA,3,1,1144,Fri May 16 00:00:00 EDT 2008,200000,38.66424,-121.303675,False,False,True
694,5733 ANGELINA AVE,CARMICHAEL,95608,CA,3,1,972,Fri May 16 00:00:00 EDT 2008,201000,38.622634,-121.330846,False,False,True
695,7849 BONNY DOWNS WAY,ELK GROVE,95758,CA,4,2,2306,Fri May 16 00:00:00 EDT 2008,204918,38.42139,-121.411339,False,False,True
696,8716 LONGSPUR WAY,ANTELOPE,95843,CA,3,2,1479,Fri May 16 00:00:00 EDT 2008,205000,38.724083,-121.3584,False,False,True
697,6320 EL DORADO ST,EL DORADO,95623,CA,2,1,1040,Fri May 16 00:00:00 EDT 2008,205000,38.678758,-120.844118,False,False,True
698,2328 DOROTHY JUNE WAY,SACRAMENTO,95838,CA,3,2,1430,Fri May 16 00:00:00 EDT 2008,205878,38.641727,-121.412703,False,False,True
699,1986 DANVERS WAY,SACRAMENTO,95832,CA,4,2,1800,Fri May 16 00:00:00 EDT 2008,207000,38.47723,-121.492568,False,False,True
700,7901 GAZELLE TRAIL WAY,ANTELOPE,95843,CA,4,2,1953,Fri May 16 00:00:00 EDT 2008,207744,38.71174,-121.342675,False,False,True
701,6080 BRIDGECROSS DR,SACRAMENTO,95835,CA,3,2,1120,Fri May 16 00:00:00 EDT 2008,209000,38.681952,-121.505009,False,False,True
702,20 GROTH CIR,SACRAMENTO,95834,CA,3,2,1232,Fri May 16 00:00:00 EDT 2008,210000,38.640807,-121.533522,False,False,True
705,8442 KEUSMAN ST,ELK GROVE,95758,CA,4,2,2329,Fri May 16 00:00:00 EDT 2008,213750,38.449651,-121.414704,False,False,True
706,9552 SUNLIGHT LN,ELK GROVE,95758,CA,3,2,1351,Fri May 16 00:00:00 EDT 2008,215000,38.410561,-121.404327,False,False,True
708,1407 TIFFANY CIR,ROSEVILLE,95661,CA,4,1,1376,Fri May 16 00:00:00 EDT 2008,215000,38.736392,-121.2664,False,False,True
709,636 CRESTVIEW DR,DIAMOND SPRINGS,95619,CA,3,2,1300,Fri May 16 00:00:00 EDT 2008,216033,38.688255,-120.810235,False,False,True
710,1528 HESKET WAY,SACRAMENTO,95825,CA,4,2,1566,Fri May 16 00:00:00 EDT 2008,220000,38.593598,-121.403637,False,False,True
711,2327 32ND ST,SACRAMENTO,95817,CA,2,1,1115,Fri May 16 00:00:00 EDT 2008,220000,38.557433,-121.47034,False,False,True
712,1833 2ND AVE,SACRAMENTO,95818,CA,2,1,1032,Fri May 16 00:00:00 EDT 2008,220000,38.556818,-121.490669,False,False,True
713,7252 CARRIAGE DR,CITRUS HEIGHTS,95621,CA,4,2,1419,Fri May 16 00:00:00 EDT 2008,220000,38.698058,-121.294893,False,False,True
714,9815 PASO FINO WAY,ELK GROVE,95757,CA,3,2,1261,Fri May 16 00:00:00 EDT 2008,220000,38.404888,-121.443998,False,False,True
715,5532 ENGLE RD,CARMICHAEL,95608,CA,2,2,1637,Fri May 16 00:00:00 EDT 2008,220702,38.63173,-121.335286,False,False,True
716,1139 CLINTON RD,SACRAMENTO,95825,CA,4,2,1776,Fri May 16 00:00:00 EDT 2008,221250,38.585291,-121.406824,False,True,False
717,9176 SAGE GLEN WAY,ELK GROVE,95758,CA,3,2,1338,Fri May 16 00:00:00 EDT 2008,222000,38.423913,-121.439115,False,False,True
719,9264 BOULDER RIVER WAY,ELK GROVE,95624,CA,5,2,2254,Fri May 16 00:00:00 EDT 2008,222750,38.421713,-121.345191,False,False,True
720,320 GROTH CIR,SACRAMENTO,95834,CA,3,2,1441,Fri May 16 00:00:00 EDT 2008,225000,38.638882,-121.531883,False,False,True
721,137 GUNNISON AVE,SACRAMENTO,95838,CA,4,2,1991,Fri May 16 00:00:00 EDT 2008,225000,38.650729,-121.466483,False,False,True
722,8209 RIVALLO WAY,SACRAMENTO,95829,CA,4,3,2126,Fri May 16 00:00:00 EDT 2008,228750,38.459524,-121.3501,False,False,True
723,8637 PERIWINKLE CIR,ELK GROVE,95624,CA,3,2,1094,Fri May 16 00:00:00 EDT 2008,229000,38.443184,-121.364388,False,False,True
724,3425 MEADOW WAY,ROCKLIN,95677,CA,3,2,1462,Fri May 16 00:00:00 EDT 2008,230095,38.798028,-121.235364,False,False,True
725,107 JARVIS CIR,SACRAMENTO,95834,CA,5,3,2258,Fri May 16 00:00:00 EDT 2008,232500,38.639891,-121.537603,False,False,True
726,2319 THORES ST,RANCHO CORDOVA,95670,CA,3,2,1074,Fri May 16 00:00:00 EDT 2008,233000,38.59675,-121.312716,False,False,True
727,8935 MOUNTAIN HOME CT,ELK GROVE,95624,CA,4,2,2111,Fri May 16 00:00:00 EDT 2008,233500,38.38751,-121.370276,False,False,True
728,2566 SERENATA WAY,SACRAMENTO,95835,CA,3,2,1686,Fri May 16 00:00:00 EDT 2008,239000,38.671556,-121.520916,False,False,True
729,4085 COUNTRY DR,ANTELOPE,95843,CA,4,3,1915,Fri May 16 00:00:00 EDT 2008,240000,38.706209,-121.369509,False,False,True
730,9297 TROUT WAY,ELK GROVE,95624,CA,4,2,2367,Fri May 16 00:00:00 EDT 2008,240000,38.420637,-121.375798,False,False,True
731,7 ARCHIBALD CT,SACRAMENTO,95823,CA,3,2,1962,Fri May 16 00:00:00 EDT 2008,240971,38.443305,-121.435296,False,False,True
732,11130 EEL RIVER CT,RANCHO CORDOVA,95670,CA,2,2,1406,Fri May 16 00:00:00 EDT 2008,242000,38.625932,-121.271517,False,False,True
733,8323 REDBANK WAY,SACRAMENTO,95829,CA,3,2,1789,Fri May 16 00:00:00 EDT 2008,243450,38.455753,-121.349273,False,False,True
734,16 BRONCO CREEK CT,SACRAMENTO,95835,CA,4,2,1876,Fri May 16 00:00:00 EDT 2008,243500,38.674226,-121.525497,False,False,True
735,8316 NORTHAM DR,ANTELOPE,95843,CA,3,2,1235,Fri May 16 00:00:00 EDT 2008,246544,38.720767,-121.376678,False,False,True
736,4240 WINJE DR,ANTELOPE,95843,CA,4,2,2504,Fri May 16 00:00:00 EDT 2008,246750,38.70884,-121.359559,False,False,True
738,5118 ROBANDER ST,CARMICHAEL,95608,CA,3,2,1676,Fri May 16 00:00:00 EDT 2008,247000,38.657267,-121.310352,False,False,True
739,5976 KYLENCH CT,CITRUS HEIGHTS,95621,CA,3,2,1367,Fri May 16 00:00:00 EDT 2008,249000,38.708966,-121.32467,False,False,True
740,9247 DELAIR WAY,ELK GROVE,95758,CA,4,3,1899,Fri May 16 00:00:00 EDT 2008,249000,38.422241,-121.458022,False,False,True
741,9054 DESCENDANT DR,ELK GROVE,95758,CA,3,2,1636,Fri May 16 00:00:00 EDT 2008,250000,38.428852,-121.415628,False,False,True
742,3450 WHITNOR CT,SACRAMENTO,95821,CA,3,2,1828,Fri May 16 00:00:00 EDT 2008,250000,38.627698,-121.369698,False,False,True
744,9355 MATADOR WAY,SACRAMENTO,95826,CA,4,2,1438,Fri May 16 00:00:00 EDT 2008,252000,38.555633,-121.350691,False,False,True
745,8671 SUMMER SUN WAY,ELK GROVE,95624,CA,3,2,1451,Fri May 16 00:00:00 EDT 2008,255000,38.442845,-121.373272,False,False,True
746,1890 GENEVA PL,SACRAMENTO,95825,CA,3,1,1520,Fri May 16 00:00:00 EDT 2008,255000,38.599449,-121.400305,False,False,True
747,1813 AVENIDA MARTINA,ROSEVILLE,95747,CA,3,2,1506,Fri May 16 00:00:00 EDT 2008,255000,38.776649,-121.339589,False,False,True
748,191 BARNHART CIR,SACRAMENTO,95835,CA,4,2,2605,Fri May 16 00:00:00 EDT 2008,257200,38.675594,-121.515878,False,False,True
749,6221 GREEN TOP WAY,ORANGEVALE,95662,CA,3,2,1196,Fri May 16 00:00:00 EDT 2008,260000,38.679409,-121.219107,False,False,True
750,2298 PRIMROSE LN,LINCOLN,95648,CA,3,2,1621,Fri May 16 00:00:00 EDT 2008,260000,38.89918,-121.322514,False,False,True
751,5635 LOS PUEBLOS WAY,SACRAMENTO,95835,CA,3,2,1811,Fri May 16 00:00:00 EDT 2008,263500,38.679191,-121.537622,False,False,True
752,10165 LOFTON WAY,ELK GROVE,95757,CA,3,2,1540,Fri May 16 00:00:00 EDT 2008,266510,38.387708,-121.436522,False,False,True
758,9949 NESTLING CIR,ELK GROVE,95757,CA,3,2,1543,Fri May 16 00:00:00 EDT 2008,275000,38.397455,-121.468391,False,False,True
759,2915 HOLDREGE WAY,SACRAMENTO,95835,CA,5,3,2494,Fri May 16 00:00:00 EDT 2008,276000,38.663728,-121.525833,False,False,True
760,2678 BRIARTON DR,LINCOLN,95648,CA,3,2,1650,Fri May 16 00:00:00 EDT 2008,276500,38.844116,-121.274806,False,False,True
761,294 SPARROW DR,GALT,95632,CA,4,3,2214,Fri May 16 00:00:00 EDT 2008,278000,38.258976,-121.321266,False,False,True
762,2987 DIORITE WAY,SACRAMENTO,95835,CA,5,3,2280,Fri May 16 00:00:00 EDT 2008,279000,38.667332,-121.528276,False,False,True
763,6326 APPIAN WAY,CARMICHAEL,95608,CA,3,2,1443,Fri May 16 00:00:00 EDT 2008,280000,38.66266,-121.316858,False,False,True
764,6905 COBALT WAY,CITRUS HEIGHTS,95621,CA,4,2,1582,Fri May 16 00:00:00 EDT 2008,280000,38.691393,-121.305215,False,False,True
765,8986 HAFLINGER WAY,ELK GROVE,95757,CA,3,2,1857,Fri May 16 00:00:00 EDT 2008,285000,38.397923,-121.450219,False,False,True
766,2916 BABSON DR,ELK GROVE,95758,CA,3,2,1735,Fri May 16 00:00:00 EDT 2008,288000,38.417191,-121.473897,False,False,True
767,10133 NEBBIOLO CT,ELK GROVE,95624,CA,4,3,2096,Fri May 16 00:00:00 EDT 2008,289000,38.391085,-121.347231,False,False,True
768,1103 COMMONS DR,SACRAMENTO,95825,CA,3,2,1720,Fri May 16 00:00:00 EDT 2008,290000,38.567865,-121.410699,False,False,True
769,4636 TEAL BAY CT,ANTELOPE,95843,CA,4,2,2160,Fri May 16 00:00:00 EDT 2008,290000,38.704554,-121.354753,False,False,True
770,1524 YOUNGS AVE,SACRAMENTO,95838,CA,4,2,1382,Fri May 16 00:00:00 EDT 2008,293996,38.644927,-121.43054,False,False,True
772,8463 TERRACOTTA CT,ELK GROVE,95624,CA,4,2,1721,Fri May 16 00:00:00 EDT 2008,294173,38.450548,-121.363002,False,False,True
773,5747 KING RD,LOOMIS,95650,CA,4,2,1328,Fri May 16 00:00:00 EDT 2008,295000,38.825096,-121.198432,False,False,True
775,9204 TROUT WAY,ELK GROVE,95624,CA,4,2,1982,Fri May 16 00:00:00 EDT 2008,298000,38.422221,-121.375799,False,False,True
776,1828 2ND AVE,SACRAMENTO,95818,CA,2,1,1144,Fri May 16 00:00:00 EDT 2008,299000,38.556844,-121.490769,False,False,True
777,1113 COMMONS DR,SACRAMENTO,95825,CA,2,2,1623,Fri May 16 00:00:00 EDT 2008,300000,38.567795,-121.410703,False,False,True
778,2341 BIG STRIKE TRL,COOL,95614,CA,3,2,1457,Fri May 16 00:00:00 EDT 2008,300000,38.905927,-120.975169,False,False,True
779,9452 RED SPRUCE WAY,ELK GROVE,95624,CA,6,3,2555,Fri May 16 00:00:00 EDT 2008,300000,38.404505,-121.346938,False,False,True
780,5776 TERRACE DR,ROCKLIN,95765,CA,3,2,1577,Fri May 16 00:00:00 EDT 2008,300567,38.800539,-121.260979,False,False,True
781,5908 MCLEAN DR,ELK GROVE,95757,CA,5,3,2592,Fri May 16 00:00:00 EDT 2008,303000,38.38912,-121.434389,False,False,True
782,8215 PEREGRINE WAY,CITRUS HEIGHTS,95610,CA,3,2,1401,Fri May 16 00:00:00 EDT 2008,305000,38.715493,-121.26293,False,False,True
784,2949 PANAMA AVE,CARMICHAEL,95608,CA,3,2,1502,Fri May 16 00:00:00 EDT 2008,310000,38.618369,-121.326187,False,False,True
785,1356 HARTLEY WAY,FOLSOM,95630,CA,3,2,1327,Fri May 16 00:00:00 EDT 2008,310000,38.651617,-121.131674,False,False,True
786,633 HANISCH DR,ROSEVILLE,95678,CA,4,3,1800,Fri May 16 00:00:00 EDT 2008,310000,38.76349,-121.275881,False,False,True
787,63 ANGEL ISLAND CIR,SACRAMENTO,95831,CA,4,2,2169,Fri May 16 00:00:00 EDT 2008,311518,38.490408,-121.547664,False,False,True
788,1571 WILD OAK LN,LINCOLN,95648,CA,5,3,2457,Fri May 16 00:00:00 EDT 2008,312000,38.844144,-121.274174,False,False,True
790,5601 SPINDRIFT LN,ORANGEVALE,95662,CA,4,2,2004,Fri May 16 00:00:00 EDT 2008,315000,38.668289,-121.192316,False,False,True
791,652 FIFTEEN MILE DR,ROSEVILLE,95678,CA,4,3,2212,Fri May 16 00:00:00 EDT 2008,315000,38.775872,-121.298864,False,False,True
792,7921 DOE TRAIL WAY,ANTELOPE,95843,CA,5,3,3134,Fri May 16 00:00:00 EDT 2008,315000,38.711927,-121.343608,False,False,True
793,4204 LUSK DR,SACRAMENTO,95864,CA,3,2,1360,Fri May 16 00:00:00 EDT 2008,315000,38.606569,-121.368424,False,False,True
795,5608 ROSEDALE WAY,SACRAMENTO,95822,CA,3,2,1276,Fri May 16 00:00:00 EDT 2008,320000,38.525115,-121.518689,False,False,True
796,3372 BERETANIA WAY,SACRAMENTO,95834,CA,4,3,2962,Fri May 16 00:00:00 EDT 2008,322000,38.64977,-121.53448,False,False,True
797,2422 STEFANIE DR,ROCKLIN,95765,CA,4,2,1888,Fri May 16 00:00:00 EDT 2008,325000,38.82273,-121.26424,False,False,True
800,1214 DAWNWOOD DR,GALT,95632,CA,3,2,1548,Fri May 16 00:00:00 EDT 2008,328370,38.290119,-121.286023,False,False,True
802,3349 CORVINA DR,RANCHO CORDOVA,95670,CA,4,3,2109,Fri May 16 00:00:00 EDT 2008,330000,38.580545,-121.279016,False,False,True
803,10254 JULIANA WAY,SACRAMENTO,95827,CA,4,2,2484,Fri May 16 00:00:00 EDT 2008,331200,38.56803,-121.309966,False,False,True
804,149 OPUS CIR,SACRAMENTO,95834,CA,4,3,2258,Fri May 16 00:00:00 EDT 2008,332000,38.6354,-121.53499,False,False,True
805,580 REGENCY PARK CIR,SACRAMENTO,95835,CA,3,3,2212,Fri May 16 00:00:00 EDT 2008,334000,38.674864,-121.4958,False,False,True
806,5544 CAMAS CT,ORANGEVALE,95662,CA,3,2,1616,Fri May 16 00:00:00 EDT 2008,335000,38.667703,-121.209456,False,False,True
807,5102 ARCHCREST WAY,SACRAMENTO,95835,CA,4,2,2372,Fri May 16 00:00:00 EDT 2008,341000,38.66841,-121.494639,False,False,True
808,5725 BALFOR RD,ROCKLIN,95765,CA,5,3,2606,Fri May 16 00:00:00 EDT 2008,346375,38.807816,-121.270008,False,False,True
810,4821 HUTSON WAY,ELK GROVE,95757,CA,5,3,2877,Fri May 16 00:00:00 EDT 2008,349000,38.386239,-121.448159,False,False,True
811,4509 WINJE DR,ANTELOPE,95843,CA,3,2,2960,Fri May 16 00:00:00 EDT 2008,350000,38.709513,-121.359357,False,False,True
813,6709 ROSE BRIDGE DR,ROSEVILLE,95678,CA,3,2,2172,Fri May 16 00:00:00 EDT 2008,350000,38.792461,-121.275711,False,False,True
814,281 SPYGLASS HL,ROSEVILLE,95678,CA,3,2,2100,Fri May 16 00:00:00 EDT 2008,350000,38.762153,-121.283451,True,False,False
815,7709 RIVER VILLAGE DR,SACRAMENTO,95831,CA,3,2,1795,Fri May 16 00:00:00 EDT 2008,351000,38.483212,-121.54019,False,False,True
817,506 BEDFORD CT,ROSEVILLE,95661,CA,4,2,2295,Fri May 16 00:00:00 EDT 2008,360000,38.733985,-121.236766,False,False,True
818,9048 PINTO CANYON WAY,ROSEVILLE,95747,CA,4,3,2577,Fri May 16 00:00:00 EDT 2008,367463,38.792493,-121.331899,False,False,True
820,14004 WALNUT AVE,WALNUT GROVE,95690,CA,3,1,1727,Fri May 16 00:00:00 EDT 2008,380000,38.247659,-121.515129,False,False,True
821,6905 FRANKFORT CT,ELK GROVE,95758,CA,3,2,1485,Fri May 16 00:00:00 EDT 2008,380578,38.429139,-121.423444,False,False,True
822,3621 WINTUN DR,CARMICHAEL,95608,CA,3,2,1655,Fri May 16 00:00:00 EDT 2008,386222,38.629929,-121.323086,False,False,True
825,1975 SIDESADDLE WAY,ROSEVILLE,95661,CA,3,2,2049,Fri May 16 00:00:00 EDT 2008,395500,38.737872,-121.249025,False,False,True
827,9677 PILLITERI CT,ELK GROVE,95757,CA,5,3,2875,Fri May 16 00:00:00 EDT 2008,397000,38.405571,-121.445186,False,False,True
829,556 PLATT CIR,EL DORADO HILLS,95762,CA,4,2,2199,Fri May 16 00:00:00 EDT 2008,400000,38.656299,-121.079783,False,False,True
831,1124 PERKINS WAY,SACRAMENTO,95818,CA,2,1,1304,Fri May 16 00:00:00 EDT 2008,413500,38.551611,-121.504437,False,False,True
832,4748 SALEM WAY,CARMICHAEL,95608,CA,3,2,2334,Fri May 16 00:00:00 EDT 2008,415000,38.634111,-121.353376,False,False,True
833,1484 RADCLIFFE WAY,AUBURN,95603,CA,4,3,2278,Fri May 16 00:00:00 EDT 2008,420454,38.935579,-121.079018,False,False,True
834,51 AIKEN WAY,SACRAMENTO,95819,CA,3,1,1493,Fri May 16 00:00:00 EDT 2008,425000,38.579326,-121.44252,False,False,True
838,700 HUNTER PL,FOLSOM,95630,CA,5,3,2787,Fri May 16 00:00:00 EDT 2008,441000,38.66051,-121.163689,False,False,True
839,1240 FAY CIR,SACRAMENTO,95831,CA,5,3,2824,Fri May 16 00:00:00 EDT 2008,445000,38.506371,-121.514456,False,False,True
840,1113 SANDWICK WAY,FOLSOM,95630,CA,4,3,3261,Fri May 16 00:00:00 EDT 2008,446000,38.673882,-121.105077,False,False,True
841,3108 DELWOOD WAY,SACRAMENTO,95821,CA,4,2,2053,Fri May 16 00:00:00 EDT 2008,450000,38.621566,-121.370882,False,False,True
842,3212 CORNICHE LN,ROSEVILLE,95661,CA,4,3,2379,Fri May 16 00:00:00 EDT 2008,455000,38.750577,-121.232768,False,False,True
849,8217 PLUMERIA AVE,FAIR OAKS,95628,CA,3,2,3173,Fri May 16 00:00:00 EDT 2008,525000,38.650735,-121.258628,False,False,True
851,3863 LAS PASAS WAY,SACRAMENTO,95864,CA,3,1,1348,Fri May 16 00:00:00 EDT 2008,545000,38.588936,-121.373606,False,False,True
853,1165 37TH ST,SACRAMENTO,95816,CA,2,1,1252,Fri May 16 00:00:00 EDT 2008,575000,38.568438,-121.457854,False,False,True
854,203 CASCADE FALLS DR,FOLSOM,95630,CA,4,3,3229,Fri May 16 00:00:00 EDT 2008,575000,38.703962,-121.1871,False,False,True
855,9880 IZILDA CT,SACRAMENTO,95829,CA,5,4,3863,Fri May 16 00:00:00 EDT 2008,598695,38.45326,-121.32573,False,False,True
858,620 KESWICK CT,GRANITE BAY,95746,CA,4,3,2356,Fri May 16 00:00:00 EDT 2008,600000,38.732096,-121.219142,False,False,True
860,8432 BRIGGS DR,ROSEVILLE,95747,CA,5,3,3579,Fri May 16 00:00:00 EDT 2008,610000,38.78861,-121.339495,False,False,True
864,9401 BARREL RACER CT,WILTON,95693,CA,4,3,4400,Fri May 16 00:00:00 EDT 2008,884790,38.415298,-121.194858,False,False,True
866,14151 INDIO DR,SLOUGHHOUSE,95683,CA,3,4,5822,Fri May 16 00:00:00 EDT 2008,2000,38.490447,-121.129337,False,False,True
867,7401 TOULON LN,SACRAMENTO,95828,CA,4,2,1512,Thu May 15 00:00:00 EDT 2008,56950,38.488628,-121.387759,False,False,True
868,9127 NEWHALL DR Unit 34,SACRAMENTO,95826,CA,1,1,611,Thu May 15 00:00:00 EDT 2008,60000,38.542419,-121.359904,True,False,False
869,5937 BAMFORD DR,SACRAMENTO,95823,CA,2,1,876,Thu May 15 00:00:00 EDT 2008,61000,38.471139,-121.432255,False,False,True
870,5672 HILLSDALE BLVD,SACRAMENTO,95842,CA,2,1,933,Thu May 15 00:00:00 EDT 2008,62000,38.670467,-121.359799,True,False,False
871,3920 39TH ST,SACRAMENTO,95820,CA,2,1,864,Thu May 15 00:00:00 EDT 2008,68566,38.539213,-121.46393,False,False,True
872,701 JESSIE AVE,SACRAMENTO,95838,CA,2,1,1011,Thu May 15 00:00:00 EDT 2008,70000,38.643978,-121.449562,False,False,True
873,83 ARCADE BLVD,SACRAMENTO,95815,CA,4,2,1158,Thu May 15 00:00:00 EDT 2008,80000,38.618716,-121.466327,False,False,True
874,601 REGGINALD WAY,SACRAMENTO,95838,CA,3,2,1092,Thu May 15 00:00:00 EDT 2008,85500,38.64472,-121.452228,False,False,True
875,550 DEL VERDE CIR,SACRAMENTO,95833,CA,2,1,956,Thu May 15 00:00:00 EDT 2008,92000,38.627147,-121.500799,True,False,False
876,4113 DAYSTAR CT,SACRAMENTO,95824,CA,2,2,1139,Thu May 15 00:00:00 EDT 2008,93600,38.520469,-121.458606,False,False,True
877,7374 TISDALE WAY,SACRAMENTO,95822,CA,3,1,1058,Thu May 15 00:00:00 EDT 2008,95000,38.488238,-121.472561,False,False,True
878,3348 RIO LINDA BLVD,SACRAMENTO,95838,CA,3,2,1040,Thu May 15 00:00:00 EDT 2008,97750,38.628842,-121.446127,False,False,True
879,3935 LIMESTONE WAY,SACRAMENTO,95823,CA,3,2,1354,Thu May 15 00:00:00 EDT 2008,104000,38.484374,-121.463157,False,False,True
880,6208 GRATTAN WAY,NORTH HIGHLANDS,95660,CA,3,1,1051,Thu May 15 00:00:00 EDT 2008,105000,38.679279,-121.376615,False,False,True
881,739 E WOODSIDE LN Unit E,SACRAMENTO,95825,CA,1,1,682,Thu May 15 00:00:00 EDT 2008,107666,38.578675,-121.409951,True,False,False
882,4225 46TH AVE,SACRAMENTO,95824,CA,3,1,1161,Thu May 15 00:00:00 EDT 2008,109000,38.511893,-121.457676,False,False,True
883,1434 BELL AVE,SACRAMENTO,95838,CA,3,1,1004,Thu May 15 00:00:00 EDT 2008,110000,38.647398,-121.432914,False,False,True
884,5628 GEORGIA DR,NORTH HIGHLANDS,95660,CA,3,1,1229,Thu May 15 00:00:00 EDT 2008,110000,38.669587,-121.379879,False,False,True
885,7629 BETH ST,SACRAMENTO,95832,CA,3,2,1249,Thu May 15 00:00:00 EDT 2008,112500,38.480126,-121.487869,False,False,True
886,2277 BABETTE WAY,SACRAMENTO,95832,CA,3,2,1161,Thu May 15 00:00:00 EDT 2008,114800,38.479593,-121.48434,False,False,True
887,6561 WEATHERFORD WAY,SACRAMENTO,95823,CA,3,1,1010,Thu May 15 00:00:00 EDT 2008,116000,38.465551,-121.42661,False,False,True
889,5136 CABOT CIR,SACRAMENTO,95820,CA,4,2,1462,Thu May 15 00:00:00 EDT 2008,121500,38.528479,-121.411806,False,False,True
890,7730 ROBINETTE RD,SACRAMENTO,95828,CA,3,2,1269,Thu May 15 00:00:00 EDT 2008,122000,38.47709,-121.410569,False,False,True
891,87 LACAM CIR,SACRAMENTO,95820,CA,2,2,1188,Thu May 15 00:00:00 EDT 2008,123675,38.532359,-121.41167,False,False,True
892,1691 NOGALES ST,SACRAMENTO,95838,CA,4,2,1570,Thu May 15 00:00:00 EDT 2008,126854,38.631925,-121.427775,False,False,True
893,3118 42ND ST,SACRAMENTO,95817,CA,3,2,1093,Thu May 15 00:00:00 EDT 2008,127059,38.546091,-121.457745,False,False,True
894,7517 50TH AVE,SACRAMENTO,95828,CA,3,1,962,Thu May 15 00:00:00 EDT 2008,128687,38.507339,-121.416267,False,False,True
895,4071 EVALITA WAY,SACRAMENTO,95823,CA,3,2,1089,Thu May 15 00:00:00 EDT 2008,129500,38.466388,-121.458861,False,False,True
896,7928 36TH AVE,SACRAMENTO,95824,CA,3,2,1127,Thu May 15 00:00:00 EDT 2008,130000,38.52049,-121.411383,False,False,True
897,6631 DEMARET DR,SACRAMENTO,95822,CA,4,2,1309,Thu May 15 00:00:00 EDT 2008,131750,38.506382,-121.483574,False,False,True
898,7043 9TH AVE,RIO LINDA,95673,CA,2,1,970,Thu May 15 00:00:00 EDT 2008,132000,38.695589,-121.444133,False,False,True
899,97 KENNELFORD CIR,SACRAMENTO,95823,CA,3,2,1144,Thu May 15 00:00:00 EDT 2008,134000,38.462376,-121.426556,False,False,True
900,2636 TRONERO WAY,RANCHO CORDOVA,95670,CA,3,1,1000,Thu May 15 00:00:00 EDT 2008,134000,38.593049,-121.30304,False,False,True
902,3604 KODIAK WAY,ANTELOPE,95843,CA,3,2,1206,Thu May 15 00:00:00 EDT 2008,142000,38.706175,-121.379776,False,False,True
903,2149 COTTAGE WAY,SACRAMENTO,95825,CA,3,1,1285,Thu May 15 00:00:00 EDT 2008,143012,38.603593,-121.417011,False,False,True
904,8632 PRAIRIEWOODS DR,SACRAMENTO,95828,CA,3,2,1543,Thu May 15 00:00:00 EDT 2008,145846,38.477563,-121.384382,False,False,True
905,612 STONE BLVD,WEST SACRAMENTO,95691,CA,2,1,884,Thu May 15 00:00:00 EDT 2008,147000,38.563084,-121.535579,False,False,True
906,4180 12TH AVE,SACRAMENTO,95817,CA,3,1,1019,Thu May 15 00:00:00 EDT 2008,148750,38.54117,-121.458129,False,False,True
907,8025 ARROYO VISTA DR,SACRAMENTO,95823,CA,4,2,1392,Thu May 15 00:00:00 EDT 2008,150000,38.46654,-121.419029,False,False,True
908,5754 WALERGA RD Unit 4,SACRAMENTO,95842,CA,2,1,924,Thu May 15 00:00:00 EDT 2008,150454,38.672567,-121.356754,True,False,False
909,8 LA ROCAS CT,SACRAMENTO,95823,CA,3,2,1217,Thu May 15 00:00:00 EDT 2008,151087,38.46616,-121.448283,False,False,True
910,8636 LONGSPUR WAY,ANTELOPE,95843,CA,3,2,1670,Thu May 15 00:00:00 EDT 2008,157296,38.725873,-121.35856,False,False,True
911,1941 EXPEDITION WAY,SACRAMENTO,95832,CA,3,2,1302,Thu May 15 00:00:00 EDT 2008,157500,38.473775,-121.493777,False,False,True
912,4351 TURNBRIDGE DR,SACRAMENTO,95823,CA,3,2,1488,Thu May 15 00:00:00 EDT 2008,160000,38.502034,-121.456027,False,False,True
913,6513 HOLIDAY WAY,NORTH HIGHLANDS,95660,CA,3,2,1373,Thu May 15 00:00:00 EDT 2008,160000,38.685361,-121.376938,False,False,True
914,8321 MISTLETOE WAY,CITRUS HEIGHTS,95621,CA,4,2,1381,Thu May 15 00:00:00 EDT 2008,161250,38.717738,-121.308322,False,False,True
915,5920 VALLEY GLEN WAY,SACRAMENTO,95823,CA,3,2,1265,Thu May 15 00:00:00 EDT 2008,164000,38.462821,-121.433135,False,False,True
916,2601 SAN FERNANDO WAY,SACRAMENTO,95818,CA,2,1,881,Thu May 15 00:00:00 EDT 2008,165000,38.556178,-121.476256,False,False,True
918,8008 SAINT HELENA CT,SACRAMENTO,95829,CA,4,2,1608,Thu May 15 00:00:00 EDT 2008,165750,38.467012,-121.359969,False,False,True
919,6517 DONEGAL DR,CITRUS HEIGHTS,95621,CA,3,1,1344,Thu May 15 00:00:00 EDT 2008,166000,38.681554,-121.312934,False,False,True
920,1001 RIO NORTE WAY,SACRAMENTO,95834,CA,3,2,1202,Thu May 15 00:00:00 EDT 2008,169000,38.634292,-121.485106,False,False,True
921,604 P ST,LINCOLN,95648,CA,3,2,1104,Thu May 15 00:00:00 EDT 2008,170000,38.893168,-121.305398,False,False,True
923,7351 GIGI PL,SACRAMENTO,95828,CA,4,2,1859,Thu May 15 00:00:00 EDT 2008,170000,38.490606,-121.410173,False,True,False
924,7740 DIXIE LOU ST,SACRAMENTO,95832,CA,3,2,1232,Thu May 15 00:00:00 EDT 2008,170000,38.475853,-121.477039,False,False,True
925,7342 DAVE ST,SACRAMENTO,95828,CA,3,1,1638,Thu May 15 00:00:00 EDT 2008,170725,38.490822,-121.401643,False,False,True
926,7687 HOWERTON DR,SACRAMENTO,95831,CA,2,2,1177,Thu May 15 00:00:00 EDT 2008,171750,38.480859,-121.539745,False,False,True
927,26 KAMSON CT,SACRAMENTO,95833,CA,3,2,1582,Thu May 15 00:00:00 EDT 2008,172000,38.622794,-121.499173,False,False,True
928,7045 PEEVEY CT,SACRAMENTO,95823,CA,2,2,904,Thu May 15 00:00:00 EDT 2008,173056,38.502254,-121.451444,False,False,True
929,8916 GABLES MILL PL,ELK GROVE,95758,CA,3,2,1340,Thu May 15 00:00:00 EDT 2008,174000,38.433919,-121.422347,False,False,True
930,1140 EDMONTON DR,SACRAMENTO,95833,CA,3,2,1204,Thu May 15 00:00:00 EDT 2008,174250,38.62457,-121.486913,False,False,True
931,8879 APPLE PEAR CT,ELK GROVE,95624,CA,4,2,1477,Thu May 15 00:00:00 EDT 2008,176850,38.44574,-121.3725,False,False,True
932,9 WIND CT,SACRAMENTO,95823,CA,4,2,1497,Thu May 15 00:00:00 EDT 2008,179500,38.45073,-121.427528,False,False,True
933,8570 SHERATON DR,FAIR OAKS,95628,CA,3,1,960,Thu May 15 00:00:00 EDT 2008,185000,38.667254,-121.240708,False,False,True
935,1080 RIO NORTE WAY,SACRAMENTO,95834,CA,3,2,1428,Thu May 15 00:00:00 EDT 2008,188700,38.634335,-121.486098,False,False,True
936,5501 VALLETTA WAY,SACRAMENTO,95820,CA,3,1,1039,Thu May 15 00:00:00 EDT 2008,189000,38.530144,-121.43749,False,False,True
937,5624 MEMORY LN,FAIR OAKS,95628,CA,3,1,1529,Thu May 15 00:00:00 EDT 2008,189000,38.66745,-121.2364,False,False,True
938,6622 WILLOWLEAF DR,CITRUS HEIGHTS,95621,CA,4,3,1892,Thu May 15 00:00:00 EDT 2008,189836,38.699714,-121.311635,False,False,True
939,27 MEGAN CT,SACRAMENTO,95838,CA,4,2,1887,Thu May 15 00:00:00 EDT 2008,190000,38.649258,-121.465308,False,False,True
940,6601 WOODMORE OAKS DR,ORANGEVALE,95662,CA,3,2,1294,Thu May 15 00:00:00 EDT 2008,191250,38.687006,-121.254319,False,False,True
941,1973 DANVERS WAY,SACRAMENTO,95832,CA,3,2,1638,Thu May 15 00:00:00 EDT 2008,191675,38.477568,-121.492574,False,False,True
942,8001 ARROYO VISTA DR,SACRAMENTO,95823,CA,3,2,1677,Thu May 15 00:00:00 EDT 2008,195500,38.46734,-121.419843,False,False,True
943,7409 VOYAGER WAY,CITRUS HEIGHTS,95621,CA,3,1,1073,Thu May 15 00:00:00 EDT 2008,198000,38.700717,-121.3133,False,False,True
944,815 CROSSWIND DR,SACRAMENTO,95838,CA,3,2,1231,Thu May 15 00:00:00 EDT 2008,200000,38.651386,-121.45042,False,False,True
945,5509 LAGUNA CREST WAY,ELK GROVE,95758,CA,3,2,1175,Thu May 15 00:00:00 EDT 2008,200000,38.42442,-121.440357,False,False,True
946,8424 MERRY HILL WAY,ELK GROVE,95624,CA,3,2,1416,Thu May 15 00:00:00 EDT 2008,200000,38.452075,-121.366461,False,False,True
948,5954 BRIDGECROSS DR,SACRAMENTO,95835,CA,3,2,1358,Thu May 15 00:00:00 EDT 2008,201528,38.68197,-121.500025,False,False,True
949,8789 SEQUOIA WOOD CT,ELK GROVE,95624,CA,4,2,1609,Thu May 15 00:00:00 EDT 2008,204750,38.438818,-121.37443,False,False,True
950,6600 SILVERTHORNE CIR,SACRAMENTO,95842,CA,4,3,1968,Thu May 15 00:00:00 EDT 2008,205000,38.68607,-121.342369,False,False,True
951,2221 2ND AVE,SACRAMENTO,95818,CA,2,2,1089,Thu May 15 00:00:00 EDT 2008,205000,38.555781,-121.485331,False,False,True
952,3230 SMATHERS WAY,CARMICHAEL,95608,CA,3,2,1296,Thu May 15 00:00:00 EDT 2008,205900,38.623372,-121.347665,False,False,True
953,5209 LAGUNA CREST WAY,ELK GROVE,95758,CA,2,2,1189,Thu May 15 00:00:00 EDT 2008,207000,38.424421,-121.443915,False,False,True
954,416 LEITCH AVE,SACRAMENTO,95815,CA,2,1,795,Thu May 15 00:00:00 EDT 2008,207973,38.612694,-121.456669,False,False,True
955,2100 BEATTY WAY,ROSEVILLE,95747,CA,3,2,1371,Thu May 15 00:00:00 EDT 2008,208250,38.737882,-121.308142,False,False,True
956,6920 GILLINGHAM WAY,NORTH HIGHLANDS,95660,CA,3,1,1310,Thu May 15 00:00:00 EDT 2008,208318,38.694279,-121.373395,False,False,True
957,82 WILDFLOWER DR,GALT,95632,CA,3,2,1262,Thu May 15 00:00:00 EDT 2008,209347,38.259708,-121.311616,False,False,True
958,8652 BANTON CIR,ELK GROVE,95624,CA,4,2,1740,Thu May 15 00:00:00 EDT 2008,211500,38.444,-121.370993,False,False,True
959,8428 MISTY PASS WAY,ANTELOPE,95843,CA,3,2,1517,Thu May 15 00:00:00 EDT 2008,212000,38.722959,-121.347115,False,False,True
960,7958 ROSEVIEW WAY,SACRAMENTO,95828,CA,3,2,1450,Thu May 15 00:00:00 EDT 2008,213000,38.467836,-121.410366,False,False,True
961,9020 LUKEN CT,ELK GROVE,95624,CA,3,2,1416,Thu May 15 00:00:00 EDT 2008,216000,38.451398,-121.366614,False,False,True
962,7809 VALLECITOS WAY,SACRAMENTO,95828,CA,3,1,888,Thu May 15 00:00:00 EDT 2008,216021,38.508217,-121.411207,False,False,True
963,8445 OLD AUBURN RD,CITRUS HEIGHTS,95610,CA,3,2,1882,Thu May 15 00:00:00 EDT 2008,219000,38.715423,-121.246743,False,False,True
964,10085 ATKINS DR,ELK GROVE,95757,CA,3,2,1302,Thu May 15 00:00:00 EDT 2008,219794,38.390893,-121.437821,False,False,True
965,9185 CERROLINDA CIR,ELK GROVE,95758,CA,3,2,1418,Thu May 15 00:00:00 EDT 2008,220000,38.424497,-121.426595,False,False,True
967,5429 HESPER WAY,CARMICHAEL,95608,CA,4,2,1319,Thu May 15 00:00:00 EDT 2008,220000,38.665104,-121.315901,False,False,True
968,1178 WARMWOOD CT,GALT,95632,CA,4,2,1770,Thu May 15 00:00:00 EDT 2008,220000,38.289544,-121.284607,False,False,True
969,4900 ELUDE CT,SACRAMENTO,95842,CA,4,2,1627,Thu May 15 00:00:00 EDT 2008,223000,38.69674,-121.350519,False,False,True
971,3528 SAINT GEORGE DR,SACRAMENTO,95821,CA,3,1,1040,Thu May 15 00:00:00 EDT 2008,224000,38.629468,-121.376445,False,False,True
